{"1":{"lat":41.0343166,"lon":-77.5163924,"brand":"Pilot Travel Center","city":"Mill Hall","st":"PA","addr":"5868 Nittany Valley Dr"},"2":{"lat":41.7854658,"lon":-80.8542983,"brand":"Pilot Travel Center","city":"Austinburg","st":"OH","addr":"2246 OH-45"},"3":{"lat":41.1287094,"lon":-80.7691602,"brand":"Pilot Travel Center","city":"Youngstown","st":"OH","addr":"1150 North Canfield Niles Road"},"4":{"lat":41.4650475,"lon":-82.0606327,"brand":"Pilot Travel Center","city":"Avon","st":"OH","addr":"39115 Colorado Ave"},"6":{"lat":39.9971121,"lon":-81.5773133,"brand":"Pilot Travel Center","city":"Cambridge","st":"OH","addr":"61700 Southgate Rd"},"8":{"lat":39.5579849,"lon":-82.9577592,"brand":"Pilot Travel Center","city":"Circleville","st":"OH","addr":"25600 US-23"},"9":{"lat":39.5426314,"lon":-84.2904796,"brand":"Pilot Travel Center","city":"Franklin","st":"OH","addr":"6830 Franklin Lebanon Rd"},"11":{"lat":40.9591708,"lon":-80.660498,"brand":"Pilot Travel Center","city":"North Lima","st":"OH","addr":"10920 Market St"},"12":{"lat":41.522706,"lon":-83.4614167,"brand":"Pilot Travel Center","city":"Perrysburg","st":"OH","addr":"3430 Libbey Rd"},"13":{"lat":41.0297143,"lon":-81.9068168,"brand":"Pilot Travel Center","city":"Seville","st":"OH","addr":"8924 Lake Rd"},"14":{"lat":40.2659249,"lon":-82.92402,"brand":"Pilot Travel Center","city":"Sunbury","st":"OH","addr":"7680 E OH-37"},"16":{"lat":39.5227587,"lon":-83.8460173,"brand":"ONE9 Travel Center","city":"Wilmington","st":"OH","addr":"5772 N US Hwy 68"},"17":{"lat":42.3023192,"lon":-85.0829384,"brand":"Pilot Travel Center","city":"Battle Creek","st":"MI","addr":"15901 11 Mile Rd"},"21":{"lat":42.3016581,"lon":-83.8772028,"brand":"Pilot Travel Center","city":"Dexter","st":"MI","addr":"750 Baker Rd"},"23":{"lat":42.8830062,"lon":-85.0740756,"brand":"ONE9 Travel Center","city":"Ionia","st":"MI","addr":"7205 S State Rd"},"24":{"lat":41.9246253,"lon":-83.3660833,"brand":"Pilot Travel Center","city":"Monroe","st":"MI","addr":"1100 N Dixie Hwy"},"26":{"lat":41.7986503,"lon":-83.6936529,"brand":"Pilot Travel Center","city":"Ottawa Lake","st":"MI","addr":"6158 US-223"},"28":{"lat":40.112954,"lon":-85.5661851,"brand":"ONE9 Travel Center","city":"Daleville","st":"IN","addr":"15151 W Commerce Rd"},"29":{"lat":41.7441698,"lon":-85.0001267,"brand":"Pilot Travel Center","city":"Fremont","st":"IN","addr":"6900 N Old US-27"},"30":{"lat":39.82154,"lon":-85.91613,"brand":"Pilot Travel Center","city":"Greenfield","st":"IN","addr":"2640 N 600 W"},"31":{"lat":41.5673074,"lon":-87.4729726,"brand":"Pilot Travel Center","city":"Highland","st":"IN","addr":"8150 Indianapolis Blvd"},"34":{"lat":40.7664577,"lon":-87.1239344,"brand":"Pilot Travel Center","city":"Remington","st":"IN","addr":"4154 US-24"},"35":{"lat":41.7360343,"lon":-86.3364482,"brand":"Pilot Travel Center","city":"South Bend","st":"IN","addr":"6424 W Brick Rd"},"36":{"lat":41.4485169,"lon":-87.0103684,"brand":"ONE9 Travel Center","city":"Valparaiso","st":"IN","addr":"4105 US-30 E"},"37":{"lat":39.5514641,"lon":-86.0458302,"brand":"Pilot Travel Center","city":"Whiteland","st":"IN","addr":"2962 E 500 N"},"39":{"lat":41.4275532,"lon":-87.7568434,"brand":"Pilot Travel Center","city":"Monee","st":"IL","addr":"6002 W Monee Manhattan Rd"},"40":{"lat":42.8718466,"lon":-87.9442409,"brand":"Pilot Travel Center","city":"Oak Creek","st":"WI","addr":"2031 W Ryan Rd"},"41":{"lat":38.0857985,"lon":-83.8992367,"brand":"Pilot Travel Center","city":"Mount Sterling","st":"KY","addr":"3060 Owingsville Rd"},"43":{"lat":41.6196461,"lon":-90.7839642,"brand":"Pilot Travel Center","city":"Walcott","st":"IA","addr":"3500 N Plainview Rd"},"44":{"lat":38.9393554,"lon":-92.7734695,"brand":"Pilot Travel Center","city":"Boonville","st":"MO","addr":"1701 W Ashley Rd"},"46":{"lat":36.7162976,"lon":-86.5259045,"brand":"ONE9 Travel Center","city":"Franklin","st":"KY","addr":"2929 Scottsville Rd"},"47":{"lat":38.2761726,"lon":-84.5596854,"brand":"Pilot Travel Center","city":"Georgetown","st":"KY","addr":"259 Cherry Blossom Way"},"48":{"lat":37.5952547,"lon":-85.8648961,"brand":"Pilot Travel Center","city":"Glendale","st":"KY","addr":"58 Glendale Hodgenville Rd W"},"49":{"lat":36.6784076,"lon":-87.4051981,"brand":"Pilot Travel Center","city":"Oak Grove","st":"KY","addr":"8190 Pembroke Oak Grove Rd"},"50":{"lat":38.4575286,"lon":-85.2990757,"brand":"Pilot Travel Center","city":"Pendleton","st":"KY","addr":"489 Pendleton Road"},"51":{"lat":36.3205009,"lon":-82.8319963,"brand":"Pilot Travel Center","city":"Greeneville","st":"TN","addr":"11190 Baileyton Rd"},"52":{"lat":35.9978639,"lon":-86.5951084,"brand":"Pilot Travel Center","city":"La Vergne","st":"TN","addr":"535 Waldron Rd"},"53":{"lat":35.8821793,"lon":-87.8010389,"brand":"Pilot Travel Center","city":"Hurricane Mills","st":"TN","addr":"15559 TN-13"},"56":{"lat":35.4980477,"lon":-80.5609149,"brand":"Pilot Travel Center","city":"Kannapolis","st":"NC","addr":"2825 Lane St"},"57":{"lat":36.0657469,"lon":-79.309893,"brand":"Pilot Travel Center","city":"Mebane","st":"NC","addr":"1342 Trollingwood Hawfields Rd"},"58":{"lat":36.5234054,"lon":-77.5871445,"brand":"ONE9 Travel Center","city":"Pleasant Hill","st":"NC","addr":"2032 NC-48"},"60":{"lat":33.4176359,"lon":-80.6663309,"brand":"Pilot Travel Center","city":"Bowman","st":"SC","addr":"2064 Homestead Rd"},"61":{"lat":34.509144,"lon":-81.8580576,"brand":"ONE9 Travel Center","city":"Clinton","st":"SC","addr":"12818 SC-56"},"62":{"lat":34.2663291,"lon":-79.7017008,"brand":"Pilot Travel Center","city":"Florence","st":"SC","addr":"3006 N Williston Rd"},"63":{"lat":34.7105064,"lon":-82.4972687,"brand":"Pilot Travel Center","city":"Piedmont","st":"SC","addr":"110 Frontage Rd"},"64":{"lat":33.0386918,"lon":-80.1422282,"brand":"Mr. Fuel Travel Center","city":"Summerville","st":"SC","addr":"1521 N Main St"},"66":{"lat":34.1194936,"lon":-83.7619905,"brand":"Pilot Travel Center","city":"Braselton","st":"GA","addr":"5888 Hwy 53"},"67":{"lat":34.2723101,"lon":-84.8075792,"brand":"Pilot Travel Center","city":"Cartersville","st":"GA","addr":"968 Cassville White Rd"},"68":{"lat":32.4904417,"lon":-82.9341898,"brand":"Pilot Travel Center","city":"Dublin","st":"GA","addr":"2185 US-441"},"71":{"lat":32.1887601,"lon":-81.1949445,"brand":"Pilot Travel Center","city":"Port Wentworth","st":"GA","addr":"7001 GA-21"},"72":{"lat":32.0721515,"lon":-81.1997233,"brand":"Mr. Fuel Travel Center","city":"Savannah","st":"GA","addr":"1504 Dean Forest Rd"},"75":{"lat":30.8728873,"lon":-88.0465201,"brand":"Pilot Travel Center","city":"Satsuma","st":"AL","addr":"6109 US-43 S"},"76":{"lat":33.1733643,"lon":-87.4783113,"brand":"Pilot Travel Center","city":"Tuscaloosa","st":"AL","addr":"4416 Skyland Blvd E"},"77":{"lat":32.273085,"lon":-90.1926386,"brand":"Pilot Travel Center","city":"Jackson","st":"MS","addr":"2520 S Gallatin St"},"79":{"lat":30.4519873,"lon":-90.9571697,"brand":"ONE9 Travel Center","city":"Denham Springs","st":"LA","addr":"2601 S Range Ave"},"81":{"lat":40.9647602,"lon":-80.1396745,"brand":"Pilot Travel Center","city":"Portersville","st":"PA","addr":"2010 New Castle Rd"},"87":{"lat":30.2839635,"lon":-81.983846,"brand":"Pilot Travel Center","city":"Jacksonville","st":"FL","addr":"1050 US 301 South"},"88":{"lat":28.3590533,"lon":-80.792571,"brand":"ONE9 Travel Center","city":"Cocoa","st":"FL","addr":"4455 W King St"},"89":{"lat":27.5285466,"lon":-82.5122838,"brand":"ONE9 Travel Center","city":"Ellenton","st":"FL","addr":"1526 51st Ave E"},"90":{"lat":27.4139296,"lon":-80.4001131,"brand":"Pilot Travel Center","city":"Fort Pierce","st":"FL","addr":"7300 Okeechobee Rd"},"91":{"lat":30.0801266,"lon":-81.4781883,"brand":"Pilot Travel Center","city":"Saint Johns","st":"FL","addr":"1625 County Road 210 West"},"92":{"lat":29.2679327,"lon":-82.191552,"brand":"Pilot Travel Center","city":"Ocala","st":"FL","addr":"4255 W Hwy 326"},"94":{"lat":26.8940068,"lon":-82.009249,"brand":"Pilot Travel Center","city":"Punta Gorda","st":"FL","addr":"26505 Jones Loop Rd"},"95":{"lat":28.8734594,"lon":-82.0968814,"brand":"Pilot Travel Center","city":"Wildwood","st":"FL","addr":"493 FL-44"},"96":{"lat":27.6990761,"lon":-80.9015132,"brand":"Pilot Travel Center","city":"Okeechobee","st":"FL","addr":"3051 State Rd 60"},"97":{"lat":39.9036521,"lon":-84.1926008,"brand":"Flying J Travel Center","city":"Vandalia","st":"OH","addr":"175 Northwoods Blvd"},"114":{"lat":35.9860438,"lon":-85.0119357,"brand":"Pilot Travel Center","city":"Crossville","st":"TN","addr":"2449 Genesis Rd"},"118":{"lat":34.6083132,"lon":-92.5328223,"brand":"Pilot Travel Center","city":"Benton","st":"AR","addr":"7801 Alcoa Rd"},"130":{"lat":41.2761684,"lon":-81.6263701,"brand":"Pilot Travel Center","city":"Richfield","st":"OH","addr":"5219 Brecksville Rd"},"131":{"lat":41.0407548,"lon":-93.7955667,"brand":"Pilot Travel Center","city":"Osceola","st":"IA","addr":"2010 W Clay St"},"133":{"lat":43.2156199,"lon":-121.7837086,"brand":"Pilot Travel Center","city":"Chemult","st":"OR","addr":"109450 US-97"},"134":{"lat":45.4963311,"lon":-94.1489848,"brand":"Pilot Travel Center","city":"Saint Cloud","st":"MN","addr":"4231 Clearwater Rd"},"136":{"lat":35.1481713,"lon":-103.7249829,"brand":"One9 Travel Center","city":"Tucumcari","st":"NM","addr":"3022 S 1st St"},"137":{"lat":41.3990725,"lon":-122.376805,"brand":"Pilot Travel Center","city":"Weed","st":"CA","addr":"395 E Vista Dr"},"141":{"lat":41.2691284,"lon":-110.9413264,"brand":"Pilot Travel Center","city":"Evanston","st":"WY","addr":"289 Bear River Dr"},"144":{"lat":33.5241501,"lon":-82.0333868,"brand":"Pilot Travel Center","city":"Augusta","st":"GA","addr":"2975 Gun Club Rd"},"145":{"lat":36.1759781,"lon":-94.1933004,"brand":"Pilot Travel Center","city":"Springdale","st":"AR","addr":"5660 W Sunset Ave"},"146":{"lat":42.4976237,"lon":-73.6746987,"brand":"Pilot Travel Center","city":"Castleton-On-Hudson","st":"NY","addr":"995 US-9"},"147":{"lat":40.7394353,"lon":-114.0662683,"brand":"Pilot Travel Center","city":"West Wendover","st":"NV","addr":"1200 Wendover Blvd"},"150":{"lat":39.633648,"lon":-77.807115,"brand":"Pilot Travel Center","city":"Hagerstown","st":"MD","addr":"11633 Greencastle Pike"},"151":{"lat":46.9534846,"lon":-122.9350358,"brand":"Pilot Travel Center","city":"Olympia","st":"WA","addr":"2430 93rd Avenue SW"},"152":{"lat":38.4919127,"lon":-85.7726717,"brand":"Pilot Travel Center","city":"Memphis","st":"IN","addr":"14013 Blue Lick Rd"},"154":{"lat":35.615128,"lon":-119.6587667,"brand":"Pilot Travel Center","city":"Lost Hills","st":"CA","addr":"14808 Warren St"},"156":{"lat":37.2552886,"lon":-87.4490953,"brand":"Pilot Travel Center","city":"Madisonville","st":"KY","addr":"95 Free Henry Ford Rd"},"157":{"lat":33.1166544,"lon":-95.6346167,"brand":"Pilot Travel Center","city":"Sulphur Springs","st":"TX","addr":"1200 Hillcrest Dr S"},"159":{"lat":37.4999867,"lon":-77.0894073,"brand":"Pilot Travel Center","city":"Providence Forge","st":"VA","addr":"6721 Emmaus Church Rd"},"163":{"lat":32.342371,"lon":-108.68129,"brand":"Pilot Travel Center","city":"Lordsburg","st":"NM","addr":"1124 E Motel Dr"},"164":{"lat":43.7968692,"lon":-90.0509051,"brand":"Pilot Travel Center","city":"Mauston","st":"WI","addr":"1101 Gateway Ave"},"165":{"lat":39.1492142,"lon":-88.5313028,"brand":"Pilot Travel Center","city":"Effingham","st":"IL","addr":"2500 N 3rd St"},"167":{"lat":37.8353703,"lon":-94.3247289,"brand":"Pilot Travel Center","city":"Nevada","st":"MO","addr":"2424 E Austin Blvd"},"168":{"lat":38.8619957,"lon":-121.9502869,"brand":"Pilot Travel Center","city":"Dunnigan","st":"CA","addr":"30035 County Road 8"},"171":{"lat":40.1237394,"lon":-87.7789018,"brand":"Pilot Travel Center","city":"Oakwood","st":"IL","addr":"503 N Oakwood St"},"174":{"lat":34.4678056,"lon":-89.0060382,"brand":"Pilot Travel Center","city":"New Albany","st":"MS","addr":"500 MS-15"},"179":{"lat":39.6298918,"lon":-77.7827548,"brand":"Pilot Travel Center","city":"Hagerstown","st":"MD","addr":"16921 Halfway Blvd"},"180":{"lat":35.23849106,"lon":-111.8225708,"brand":"Pilot Travel Center","city":"Bellemont","st":"AZ","addr":"12500 W I-40"},"190":{"lat":40.6369463,"lon":-74.9684812,"brand":"Pilot Travel Center","city":"Hampton","st":"NJ","addr":"66 NJ-173"},"192":{"lat":31.4286147,"lon":-83.5163214,"brand":"Pilot Travel Center","city":"Tifton","st":"GA","addr":"4431 Union Rd"},"195":{"lat":45.6694129,"lon":-120.8349037,"brand":"Pilot Travel Center","city":"Wasco","st":"OR","addr":"91485 Biggs Rufus Hwy"},"196":{"lat":35.4045921,"lon":-94.5216767,"brand":"Pilot Travel Center","city":"Roland","st":"OK","addr":"302 W Ray Fine Blvd"},"198":{"lat":41.3419404,"lon":-86.2642465,"brand":"Pilot Travel Center","city":"Plymouth","st":"IN","addr":"10619 9A Rd"},"199":{"lat":32.544755,"lon":-93.5156468,"brand":"Pilot Travel Center","city":"Haughton","st":"LA","addr":"490 N Elm St"},"200":{"lat":34.9917428,"lon":-117.5422325,"brand":"Pilot Travel Center","city":"Boron","st":"CA","addr":"5725 CA-58"},"206":{"lat":32.7273029,"lon":-97.8243241,"brand":"Pilot Travel Center","city":"Weatherford","st":"TX","addr":"1201 W I-20"},"208":{"lat":38.4869797,"lon":-90.7587769,"brand":"Pilot Travel Center","city":"Pacific","st":"MO","addr":"1475 Thornton St"},"209":{"lat":31.0359489,"lon":-104.8303223,"brand":"Pilot Travel Center","city":"Van Horn","st":"TX","addr":"501 Van Horn Dr"},"210":{"lat":41.0919712,"lon":-74.155581,"brand":"Pilot Travel Center","city":"Mahwah","st":"NJ","addr":"230 NJ-17 S"},"211":{"lat":34.7284265,"lon":-114.3152005,"brand":"Pilot Travel Center","city":"Lake Havasu City","st":"AZ","addr":"14750 AZ-95"},"213":{"lat":39.9730026,"lon":-83.1000999,"brand":"Pilot Travel Center","city":"Columbus","st":"OH","addr":"3600 Interchange Rd"},"219":{"lat":35.9997462,"lon":-83.7769326,"brand":"Pilot Travel Center","city":"Knoxville","st":"TN","addr":"7210 Strawberry Plains Pike"},"222":{"lat":42.06539917,"lon":-72.10881805,"brand":"Pilot Travel Center","city":"Sturbridge","st":"MA","addr":"400 Haynes St"},"226":{"lat":36.0375498,"lon":-83.4455319,"brand":"ONE9 Travel Center","city":"Dandridge","st":"TN","addr":"505 Patriot Dr"},"231":{"lat":36.9751399,"lon":-84.1078036,"brand":"Pilot Travel Center","city":"Corbin","st":"KY","addr":"249 W Cumberland Gap Pkwy"},"233":{"lat":43.5395013,"lon":-123.2889168,"brand":"Flying J Travel Center","city":"Oakland","st":"OR","addr":"800 John Long Rd"},"234":{"lat":30.737533,"lon":-95.594183,"brand":"Pilot Travel Center","city":"Huntsville","st":"TX","addr":"639 TX-75"},"236":{"lat":41.4605295,"lon":-88.27197,"brand":"Pilot Travel Center","city":"Minooka","st":"IL","addr":"301 Ridge Rd"},"237":{"lat":36.6655782,"lon":-121.6298919,"brand":"Pilot Travel Center","city":"Salinas","st":"CA","addr":"951 Work St"},"238":{"lat":40.69026947,"lon":-95.7929306,"brand":"Pilot Travel Center","city":"Percival","st":"IA","addr":"2495 210th Ave"},"239":{"lat":40.8339598,"lon":-83.2454569,"brand":"Pilot Travel Center","city":"Upper Sandusky","st":"OH","addr":"1600 E Wyandot Ave"},"242":{"lat":39.5836986,"lon":-85.8185124,"brand":"Pilot Travel Center","city":"Shelbyville","st":"IN","addr":"1851 W 400 N"},"243":{"lat":38.4435533,"lon":-81.8307863,"brand":"Pilot Travel Center","city":"Nitro","st":"WV","addr":"4304 1st Ave"},"245":{"lat":40.3518312,"lon":-76.7164035,"brand":"ONE9 Travel Center","city":"Harrisburg","st":"PA","addr":"7961 Linglestown Rd"},"247":{"lat":40.0455021,"lon":-86.8196316,"brand":"Pilot Travel Center","city":"Crawfordsville","st":"IN","addr":"4403 IN-32"},"249":{"lat":38.7318125,"lon":-89.9085485,"brand":"Pilot Travel Center","city":"Troy","st":"IL","addr":"820 Edwardsville Rd"},"252":{"lat":39.368747,"lon":-94.3742995,"brand":"Pilot Travel Center","city":"Kearney","st":"MO","addr":"600 W MO-92"},"253":{"lat":39.6812937,"lon":-75.4793266,"brand":"Pilot Travel Center","city":"Carneys Point","st":"NJ","addr":"600 Pennsville Auburn Rd"},"254":{"lat":34.9785739,"lon":-85.4138975,"brand":"ONE9 Travel Center","city":"Wildwood","st":"GA","addr":"650 GA-299"},"255":{"lat":41.2364777,"lon":-73.0224483,"brand":"Pilot Travel Center","city":"Milford","st":"CT","addr":"433 Old Gate Ln"},"256":{"lat":36.5824614,"lon":-79.3542561,"brand":"Pilot Travel Center","city":"Danville","st":"VA","addr":"110 River Point Dr"},"257":{"lat":31.9148296,"lon":-102.2155156,"brand":"Pilot Travel Center","city":"Midland","st":"TX","addr":"4015 S FM 1788"},"258":{"lat":37.390449,"lon":-79.8999632,"brand":"ONE9 Travel Center","city":"Troutville","st":"VA","addr":"2966 Lee Hwy"},"259":{"lat":35.7849749,"lon":-95.4014814,"brand":"Pilot Travel Center","city":"Muskogee","st":"OK","addr":"3000 N 32nd St"},"260":{"lat":31.5809233,"lon":-84.0858248,"brand":"Pilot Travel Center","city":"Albany","st":"GA","addr":"310 Cordele Rd"},"261":{"lat":33.4852989,"lon":-89.7702939,"brand":"Pilot Travel Center","city":"Winona","st":"MS","addr":"403 SW Frontage Rd"},"265":{"lat":36.1336878,"lon":-85.5040881,"brand":"ONE9 Travel Center","city":"Cookeville","st":"TN","addr":"1111 S Jefferson Ave"},"266":{"lat":32.2962613,"lon":-106.8106477,"brand":"Pilot Travel Center","city":"Las Cruces","st":"NM","addr":"2681 W Amador Ave"},"267":{"lat":32.6121748,"lon":-83.7443167,"brand":"Pilot Travel Center","city":"Byron","st":"GA","addr":"2965 Highway 247C"},"268":{"lat":41.6143963,"lon":-90.7822177,"brand":"Pilot Travel Center","city":"Walcott","st":"IA","addr":"2975 N Plainview Rd"},"270":{"lat":35.9037229,"lon":-84.1407516,"brand":"Pilot Travel Center","city":"Knoxville","st":"TN","addr":"314 Lovell Rd"},"271":{"lat":41.5731182,"lon":-87.4028539,"brand":"Pilot Travel Center","city":"Gary","st":"IN","addr":"2501 Burr St"},"274":{"lat":30.2939811,"lon":-91.9145419,"brand":"Pilot Travel Center","city":"Breaux Bridge","st":"LA","addr":"2112 Rees St"},"275":{"lat":35.2704931,"lon":-80.8380816,"brand":"Pilot Travel Center","city":"Charlotte","st":"NC","addr":"3807 Statesville Ave"},"278":{"lat":38.9192137,"lon":-84.6255147,"brand":"Mr. Fuel Travel Center","city":"Walton","st":"KY","addr":"118 Richwood Rd"},"279":{"lat":31.4321615,"lon":-110.9619684,"brand":"Pilot Travel Center","city":"Rio Rico","st":"AZ","addr":"769 E Frontage Rd"},"280":{"lat":40.6594789,"lon":-75.0730237,"brand":"Pilot Travel Center","city":"Bloomsbury","st":"NJ","addr":"979 RT-173"},"281":{"lat":41.1397498,"lon":-80.719471,"brand":"Pilot Travel Center","city":"Girard","st":"OH","addr":"2786 Salt Springs Rd"},"282":{"lat":34.8548859,"lon":-117.0874527,"brand":"Pilot Travel Center","city":"Barstow","st":"CA","addr":"2591 Commerce Pkwy"},"284":{"lat":41.963605,"lon":-83.3536843,"brand":"Pilot Travel Center","city":"Monroe","st":"MI","addr":"1200 Nadeau Rd"},"285":{"lat":39.9451993,"lon":-82.5361147,"brand":"Pilot Travel Center","city":"Hebron","st":"OH","addr":"10258 Lancaster Rd"},"286":{"lat":39.8316413,"lon":-84.6299291,"brand":"Pilot Travel Center","city":"Eaton","st":"OH","addr":"6141 US-127"},"287":{"lat":40.9991981,"lon":-81.9971963,"brand":"Pilot Travel Center","city":"Burbank","st":"OH","addr":"10048 Avon Lake Rd"},"289":{"lat":42.527264,"lon":-88.9800701,"brand":"Pilot Travel Center","city":"Beloit","st":"WI","addr":"3001 Milwaukee Rd"},"293":{"lat":29.0245034,"lon":-82.1591888,"brand":"Pilot Travel Center","city":"Ocala","st":"FL","addr":"2020 SW Hwy 484"},"294":{"lat":41.2451569,"lon":-112.0195054,"brand":"ONE9 Travel Center","city":"Ogden","st":"UT","addr":"1670 W 12th St"},"296":{"lat":42.2962333,"lon":-83.8790246,"brand":"Pilot Travel Center","city":"Dexter","st":"MI","addr":"195 Baker Rd"},"297":{"lat":39.433433,"lon":-87.3321637,"brand":"ONE9 Travel Center","city":"Terre Haute","st":"IN","addr":"5555 E Margaret Ave"},"298":{"lat":41.027389,"lon":-76.079574,"brand":"Pilot Travel Center","city":"Drums","st":"PA","addr":"1114 PA-93"},"299":{"lat":40.4826673,"lon":-89.0167009,"brand":"Pilot Travel Center","city":"Bloomington","st":"IL","addr":"1522 W Market St"},"300":{"lat":30.4775713,"lon":-90.456625,"brand":"Pilot Travel Center","city":"Hammond","st":"LA","addr":"2111 SW Railroad Ave"},"301":{"lat":36.5187373,"lon":-89.6017247,"brand":"ONE9 Travel Center","city":"Marston","st":"MO","addr":"917 E Elm St"},"302":{"lat":30.5593931,"lon":-88.2055897,"brand":"Pilot Travel Center","city":"Theodore","st":"AL","addr":"6955 Theodore Dawes Rd"},"303":{"lat":41.4163739,"lon":-84.1042562,"brand":"Pilot Travel Center","city":"Napoleon","st":"OH","addr":"905 American Rd"},"304":{"lat":41.0596662,"lon":-84.9801287,"brand":"Flying J Travel Center","city":"New Haven","st":"IN","addr":"3105 S Doyle Rd"},"305":{"lat":35.4806895,"lon":-108.432612,"brand":"Flying J Travel Center","city":"Jamestown","st":"NM","addr":"1 Giant Crossing"},"306":{"lat":29.4398046,"lon":-98.3806082,"brand":"Pilot Travel Center","city":"San Antonio","st":"TX","addr":"5619 I-10 E"},"307":{"lat":33.9030468,"lon":-116.5458567,"brand":"Pilot Travel Center","city":"North Palm Springs","st":"CA","addr":"6605 N Indian Canyon Dr"},"308":{"lat":41.3274624,"lon":-105.6103398,"brand":"Pilot Travel Center","city":"Laramie","st":"WY","addr":"1564 N McCue St"},"309":{"lat":39.7374807,"lon":-81.5276284,"brand":"Pilot Travel Center","city":"Caldwell","st":"OH","addr":"44133 Fairground Rd"},"310":{"lat":34.9154539,"lon":-82.1080672,"brand":"Pilot Travel Center","city":"Duncan","st":"SC","addr":"1405 E Main St"},"311":{"lat":42.0696971,"lon":-80.0382442,"brand":"Pilot Travel Center","city":"Erie","st":"PA","addr":"8035 Perry Hwy"},"312":{"lat":33.6826011,"lon":-85.2628487,"brand":"Pilot Travel Center","city":"Tallapoosa","st":"GA","addr":"882 GA-100"},"313":{"lat":38.6509445,"lon":-90.1313645,"brand":"Pilot Travel Center","city":"East Saint Louis","st":"IL","addr":"699 IL-203"},"317":{"lat":37.0045664,"lon":-94.5521072,"brand":"Pilot Travel Center","city":"Joplin","st":"MO","addr":"4500 Hwy 43"},"319":{"lat":34.6875367,"lon":-85.0002596,"brand":"ONE9 Travel Center","city":"Dalton","st":"GA","addr":"243 Connector 3 SW"},"321":{"lat":38.9175693,"lon":-84.6325631,"brand":"Pilot Travel Center","city":"Walton","st":"KY","addr":"11229 Frontage Rd"},"322":{"lat":42.3771032,"lon":-77.3638463,"brand":"Pilot Travel Center","city":"Bath","st":"NY","addr":"7767 State Route 53"},"324":{"lat":42.7798093,"lon":-87.9512856,"brand":"Pilot Travel Center","city":"Franksville","st":"WI","addr":"13712 Northwestern Ave"},"328":{"lat":33.6614913,"lon":-114.2364493,"brand":"Pilot Travel Center","city":"Quartzsite","st":"AZ","addr":"1201 W Main St"},"329":{"lat":41.2356335,"lon":-95.8787717,"brand":"Pilot Travel Center","city":"Council Bluffs","st":"IA","addr":"2647 S 24th St"},"330":{"lat":29.6761537,"lon":-98.1557919,"brand":"Pilot Travel Center","city":"New Braunfels","st":"TX","addr":"4142 TX-337 Loop"},"331":{"lat":33.6851615,"lon":-84.3113042,"brand":"Pilot Travel Center","city":"Atlanta","st":"GA","addr":"2605 Bouldercrest Rd"},"332":{"lat":34.7813625,"lon":-92.1272933,"brand":"Pilot Travel Center","city":"North Little Rock","st":"AR","addr":"3300 AR-391"},"335":{"lat":32.4595478,"lon":-91.7590348,"brand":"Pilot Travel Center","city":"Rayville","st":"LA","addr":"103 Grimshaw St"},"336":{"lat":41.1415861,"lon":-78.7825072,"brand":"Pilot Travel Center","city":"DuBois","st":"PA","addr":"1742 Rich Hwy"},"337":{"lat":34.2326084,"lon":-79.8024669,"brand":"Pilot Travel Center","city":"Florence","st":"SC","addr":"2015 W Lucas St"},"338":{"lat":33.9300604,"lon":-81.0783977,"brand":"Pilot Travel Center","city":"West Columbia","st":"SC","addr":"3008 Highway 321"},"339":{"lat":40.1233305,"lon":-87.4510211,"brand":"ONE9 Travel Center","city":"Covington","st":"IN","addr":"16502 IN-63"},"340":{"lat":39.61372,"lon":-119.26588,"brand":"Pilot Travel Center","city":"Fernley","st":"NV","addr":"465 Pilot Rd"},"341":{"lat":36.2409586,"lon":-115.0977978,"brand":"Pilot Travel Center","city":"North Las Vegas","st":"NV","addr":"3812 E Craig Rd"},"343":{"lat":32.5683848,"lon":-116.9532079,"brand":"Pilot Travel Center","city":"San Diego","st":"CA","addr":"1497 Piper Ranch Rd"},"346":{"lat":34.19298553,"lon":-80.68682861,"brand":"Pilot Travel Center","city":"Lugoff","st":"SC","addr":"522 Hwy 601 S"},"348":{"lat":40.1315565,"lon":-80.0005404,"brand":"Pilot","city":"Bentleyville","st":"PA","addr":"205 Wilson Rd"},"350":{"lat":43.14257813,"lon":-115.6629562,"brand":"Pilot Travel Center","city":"Mountain Home","st":"ID","addr":"1050 US-20"},"353":{"lat":38.2757702,"lon":-84.5536404,"brand":"Pilot Travel Center","city":"Georgetown","st":"KY","addr":"110 Triport Rd"},"354":{"lat":38.2098333,"lon":-85.3481843,"brand":"Pilot Travel Center","city":"Simpsonville","st":"KY","addr":"819 Buck Creek Rd"},"356":{"lat":38.0604935,"lon":-85.7028661,"brand":"Pilot Travel Center","city":"Shepherdsville","st":"KY","addr":"2050 E Blue Lick Rd"},"358":{"lat":37.0975126,"lon":-88.6911423,"brand":"Pilot Travel Center","city":"Paducah","st":"KY","addr":"5353 Cairo Rd"},"360":{"lat":41.13663483,"lon":-83.66077423,"brand":"Pilot Travel Center","city":"Findlay","st":"OH","addr":"11471 OH-613"},"366":{"lat":35.6827518,"lon":-88.7771571,"brand":"Pilot Travel Center","city":"Jackson","st":"TN","addr":"30 Sand Pebble Dr"},"367":{"lat":33.0437769,"lon":-96.1773926,"brand":"Pilot Travel Center","city":"Caddo Mills","st":"TX","addr":"2226 FM 1903"},"368":{"lat":39.9076653,"lon":-88.8959821,"brand":"Pilot Travel Center","city":"Decatur","st":"IL","addr":"4030 E Boyd Rd"},"370":{"lat":41.3143494,"lon":-75.7553414,"brand":"Pilot Travel Center","city":"Pittston","st":"PA","addr":"417 PA-315"},"372":{"lat":34.4945572,"lon":-118.619954,"brand":"Pilot Travel Center","city":"Castaic","st":"CA","addr":"31642 Castiac Rd"},"373":{"lat":41.6300167,"lon":-93.7797822,"brand":"Pilot Travel Center","city":"Urbandale","st":"IA","addr":"11957 Douglas Avenue"},"374":{"lat":30.7255095,"lon":-85.1871173,"brand":"Pilot Travel Center","city":"Marianna","st":"FL","addr":"2209 FL-71"},"375":{"lat":29.8005033,"lon":-95.2679463,"brand":"Pilot Travel Center","city":"Houston","st":"TX","addr":"4440 N McCarty St"},"377":{"lat":27.6839915,"lon":-99.4614832,"brand":"Pilot Travel Center","city":"Laredo","st":"TX","addr":"1101 Uniroyal Dr"},"380":{"lat":43.086934,"lon":-76.1652131,"brand":"Pilot Travel Center","city":"Liverpool","st":"NY","addr":"107 7th North St"},"381":{"lat":34.4081017,"lon":-117.3987813,"brand":"Pilot Travel Center","city":"Hesperia","st":"CA","addr":"8701 US-395"},"384":{"lat":37.3107337,"lon":-77.3918783,"brand":"Pilot Travel Center","city":"Colonial Heights","st":"VA","addr":"2126 Ruffin Mill Rd"},"385":{"lat":37.874274,"lon":-93.6213646,"brand":"Pilot Travel Center","city":"Collins","st":"MO","addr":"9890 MO-13"},"386":{"lat":45.0491106,"lon":-122.9749891,"brand":"Pilot Travel Center","city":"Salem","st":"OR","addr":"4220 Brooklake Rd NE"},"387":{"lat":40.7197288,"lon":-116.106214,"brand":"ONE9 Travel Center","city":"Carlin","st":"NV","addr":"791 10th St"},"388":{"lat":32.3453762,"lon":-88.7282724,"brand":"Pilot Travel Center","city":"Meridian","st":"MS","addr":"1555 Tommy Webb Dr"},"390":{"lat":45.766036,"lon":-119.2052758,"brand":"Pilot Travel Center","city":"Stanfield","st":"OR","addr":"2115 S Hwy 395"},"391":{"lat":42.3783378,"lon":-122.8991296,"brand":"Pilot Travel Center","city":"Central Point","st":"OR","addr":"1600 E Pine St"},"392":{"lat":37.5220127,"lon":-85.8829019,"brand":"ONE9 Travel Center","city":"Sonora","st":"KY","addr":"450 E Western Ave"},"393":{"lat":35.5723775,"lon":-82.9557009,"brand":"Pilot Travel Center","city":"Waynesville","st":"NC","addr":"3712 Crabtree Rd"},"394":{"lat":41.5207589,"lon":-74.1134664,"brand":"Pilot Travel Center","city":"Newburgh","st":"NY","addr":"239 Route 17K"},"396":{"lat":38.0198724,"lon":-79.1410287,"brand":"Pilot Travel Center","city":"Staunton","st":"VA","addr":"3541 Lee Jackson Hwy"},"398":{"lat":32.085355,"lon":-83.759872,"brand":"ONE9 Travel Center","city":"Vienna","st":"GA","addr":"39 Victory Ln"},"399":{"lat":37.827213,"lon":-85.7240339,"brand":"Pilot Travel Center","city":"Lebanon Junction","st":"KY","addr":"150 Plaza Park Rd"},"402":{"lat":41.1363693,"lon":-104.7067523,"brand":"Pilot Travel Center","city":"Cheyenne","st":"WY","addr":"8020 Campstool Rd"},"403":{"lat":36.1110757,"lon":-84.0203775,"brand":"ONE9 Travel Center","city":"Heiskell","st":"TN","addr":"1915 E Raccoon Valley Dr"},"404":{"lat":35.8074604,"lon":-86.3955517,"brand":"Pilot Travel Center","city":"Murfreesboro","st":"TN","addr":"2441 S Church St"},"406":{"lat":35.3051511,"lon":-86.8838702,"brand":"Pilot Travel Center","city":"Cornersville","st":"TN","addr":"9211 Lewisburg Hwy"},"407":{"lat":43.1450179,"lon":-93.3584934,"brand":"Pilot Travel Center","city":"Clear Lake","st":"IA","addr":"2411 US-18"},"408":{"lat":39.6919273,"lon":-79.1006682,"brand":"Pilot Travel Center","city":"Grantsville","st":"MD","addr":"3000 Chestnut Ridge Rd"},"409":{"lat":36.0226487,"lon":-87.3411745,"brand":"Pilot Travel Center","city":"Dickson","st":"TN","addr":"2320 TN-46"},"411":{"lat":36.1791547,"lon":-86.2994721,"brand":"Pilot Travel Center","city":"Lebanon","st":"TN","addr":"921 Murfreesboro Rd"},"412":{"lat":36.1110419,"lon":-83.3327815,"brand":"Pilot Travel Center","city":"White Pine","st":"TN","addr":"3624 Roy Messer Hwy"},"415":{"lat":34.7696819,"lon":-85.5418879,"brand":"Pilot Travel Center","city":"Rising Fawn","st":"GA","addr":"319 Deer Head Cove Rd"},"416":{"lat":31.9596312,"lon":-83.7466403,"brand":"Pilot Travel Center","city":"Cordele","st":"GA","addr":"2201 16th Ave E"},"417":{"lat":33.7189067,"lon":-85.0291518,"brand":"Pilot Travel Center","city":"Temple","st":"GA","addr":"625 Carrollton St"},"420":{"lat":33.5603225,"lon":-83.479212,"brand":"Pilot Travel Center","city":"Madison","st":"GA","addr":"1881 Eatonton Rd"},"421":{"lat":34.6553547,"lon":-84.9802506,"brand":"Pilot Travel Center","city":"Dalton","st":"GA","addr":"142 Carbondale Rd SW"},"422":{"lat":33.32109833,"lon":-84.77779388,"brand":"Pilot Travel Center","city":"Newnan","st":"GA","addr":"1645 S US-29"},"424":{"lat":29.2657887,"lon":-82.1888883,"brand":"Pilot Travel Center","city":"Ocala","st":"FL","addr":"4032 W Hwy 326"},"425":{"lat":30.4853599,"lon":-84.4200266,"brand":"Pilot Travel Center","city":"Midway","st":"FL","addr":"33333 Blue Star Hwy"},"428":{"lat":32.5079063,"lon":-92.192854,"brand":"Pilot Travel Center","city":"West Monroe","st":"LA","addr":"300 Well Rd"},"429":{"lat":35.1575662,"lon":-90.1370671,"brand":"Pilot Travel Center","city":"West Memphis","st":"AR","addr":"1100 Martin Luther King Jr Dr"},"430":{"lat":35.280321,"lon":-93.0921508,"brand":"Pilot Travel Center","city":"Russellville","st":"AR","addr":"215 AR-331 N"},"431":{"lat":30.112463,"lon":-93.82183838,"brand":"Pilot Travel Center","city":"Orange","st":"TX","addr":"2205 TX-62"},"432":{"lat":31.4565572,"lon":-97.1719995,"brand":"Pilot Travel Center","city":"Waco","st":"TX","addr":"8055 South I-35"},"433":{"lat":32.6418424,"lon":-96.780435,"brand":"Pilot Travel Center","city":"Dallas","st":"TX","addr":"8787 S Lancaster Rd"},"434":{"lat":32.9580404,"lon":-97.3076321,"brand":"Pilot Travel Center","city":"Fort Worth","st":"TX","addr":"2400 Alliance Gateway Fwy"},"435":{"lat":31.9971005,"lon":-106.5861669,"brand":"Pilot Travel Center","city":"Anthony","st":"TX","addr":"2015 Antonio St"},"436":{"lat":35.1961629,"lon":-101.7407717,"brand":"Pilot Travel Center","city":"Amarillo","st":"TX","addr":"715 S Lakeside Dr"},"437":{"lat":36.72172546,"lon":-84.16829681,"brand":"Pilot Travel Center","city":"Williamsburg","st":"KY","addr":"481 KY-92"},"438":{"lat":36.7178154,"lon":-86.5253383,"brand":"Pilot Travel Center","city":"Franklin","st":"KY","addr":"2940 Scottsville Rd"},"439":{"lat":36.6922453,"lon":-87.4516719,"brand":"Pilot Travel Center","city":"Oak Grove","st":"KY","addr":"12900 Fort Campbell Blvd"},"440":{"lat":38.4542312,"lon":-85.2971403,"brand":"Pilot Travel Center","city":"Pendleton","st":"KY","addr":"205 Pendleton Rd"},"441":{"lat":34.5379271,"lon":-86.9108731,"brand":"Pilot Travel Center","city":"Decatur","st":"AL","addr":"3240 Point Mallard Parkway"},"442":{"lat":36.22768,"lon":-89.7252305,"brand":"Pilot Travel Center","city":"Hayti","st":"MO","addr":"1701 MO-84"},"443":{"lat":39.0036798,"lon":-93.7342165,"brand":"Pilot Travel Center","city":"Higginsville","st":"MO","addr":"6676 MO-13"},"444":{"lat":39.4515901,"lon":-87.1249587,"brand":"Pilot Travel Center","city":"Brazil","st":"IN","addr":"4376 IN-59"},"445":{"lat":41.6047037,"lon":-87.1151635,"brand":"Pilot Travel Center","city":"Chesterton","st":"IN","addr":"243 Melton Road"},"446":{"lat":40.1148689,"lon":-85.5731898,"brand":"Pilot Travel Center","city":"Daleville","st":"IN","addr":"15876 W Commerce Rd"},"447":{"lat":38.1744353,"lon":-87.5485272,"brand":"Pilot Travel Center","city":"Haubstadt","st":"IN","addr":"1042 E Warrenton Rd"},"448":{"lat":41.2903452,"lon":-87.2950114,"brand":"Pilot Travel Center","city":"Hebron","st":"IN","addr":"18011 Colorado St"},"449":{"lat":40.0575365,"lon":-81.05097,"brand":"Pilot Travel Center","city":"Belmont","st":"OH","addr":"663 Belmont Morristown Rd"},"453":{"lat":35.0779921,"lon":-81.703174,"brand":"ONE9 Travel Center","city":"Gaffney","st":"SC","addr":"909 Hyatt St"},"454":{"lat":39.9591318,"lon":-83.3697983,"brand":"Pilot Travel Center","city":"London","st":"OH","addr":"1365 US-42"},"455":{"lat":40.3703104,"lon":-82.8308017,"brand":"Pilot Travel Center","city":"Marengo","st":"OH","addr":"488 OH-61"},"457":{"lat":40.8349002,"lon":-83.9655274,"brand":"Pilot Travel Center","city":"Beaver Dam","st":"OH","addr":"427 East Main Street"},"458":{"lat":32.7392753,"lon":-111.5482275,"brand":"Pilot Travel Center","city":"Eloy","st":"AZ","addr":"619 S Sunshine Blvd"},"459":{"lat":33.4565325,"lon":-112.2736558,"brand":"Pilot Travel Center","city":"Avondale","st":"AZ","addr":"900 N 99th Ave"},"460":{"lat":35.462134,"lon":-97.6870314,"brand":"Pilot Travel Center","city":"Oklahoma City","st":"OK","addr":"400 S Morgan Rd"},"467":{"lat":29.219594,"lon":-98.4150702,"brand":"Pilot Travel Center","city":"San Antonio","st":"TX","addr":"4105 S Loop 1604 E"},"468":{"lat":40.7507441,"lon":-88.0015038,"brand":"Pilot Travel Center","city":"Gilman","st":"IL","addr":"815 US-24"},"469":{"lat":40.7502385,"lon":-81.4032995,"brand":"Pilot Travel Center","city":"Canton","st":"OH","addr":"2320 Faircrest St SW"},"470":{"lat":44.9629352,"lon":-92.5603506,"brand":"Flying J Travel Center","city":"Roberts","st":"WI","addr":"1191 70th Ave"},"471":{"lat":28.1181341,"lon":-81.6391481,"brand":"Pilot Travel Center","city":"Haines City","st":"FL","addr":"35647 US-27"},"472":{"lat":29.4955037,"lon":-95.9113797,"brand":"Pilot Travel Center","city":"Beasley","st":"TX","addr":"525 S 1st St"},"473":{"lat":41.4574327,"lon":-88.1922368,"brand":"Pilot Travel Center","city":"Channahon","st":"IL","addr":"23841 W Eames St"},"474":{"lat":38.7051746,"lon":-80.6635571,"brand":"Pilot Travel Center","city":"Sutton","st":"WV","addr":"270 Scott Fork Rd"},"475":{"lat":35.0110456,"lon":-106.0438639,"brand":"Pilot Travel Center","city":"Moriarty","st":"NM","addr":"305 W Abrahames Rd"},"476":{"lat":41.1806298,"lon":-90.3379606,"brand":"Pilot Travel Center","city":"Woodhull","st":"IL","addr":"900 Plaza Ave"},"477":{"lat":33.3434485,"lon":-96.5875318,"brand":"Flying J Travel Center","city":"Anna","st":"TX","addr":"1700 N US Hwy 75"},"478":{"lat":38.2385162,"lon":-86.3615456,"brand":"Pilot Travel Center","city":"Leavenworth","st":"IN","addr":"6921 IN-66"},"481":{"lat":35.1527995,"lon":-84.9531823,"brand":"Pilot Travel Center","city":"McDonald","st":"TN","addr":"281 Pleasant Grove Road SW"},"482":{"lat":38.3123175,"lon":-88.9608356,"brand":"Pilot Travel Center","city":"Mount Vernon","st":"IL","addr":"4610 Broadway St"},"483":{"lat":41.3953094,"lon":-88.4207923,"brand":"Pilot Travel Center","city":"Morris","st":"IL","addr":"3801 N Division St"},"484":{"lat":35.222358,"lon":-112.478655,"brand":"ONE9 Travel Center","city":"Ash Fork","st":"AZ","addr":"43 W Park Ave"},"485":{"lat":40.9313859,"lon":-117.8055892,"brand":"Pilot Travel Center","city":"Winnemucca","st":"NV","addr":"5625 W Winnemucca Blvd"},"486":{"lat":32.4507964,"lon":-95.2836963,"brand":"Pilot Travel Center","city":"Tyler","st":"TX","addr":"12881 FM 14"},"488":{"lat":28.4526525,"lon":-99.2382238,"brand":"Flying J Travel Center","city":"Cotulla","st":"TX","addr":"921 N I-35"},"489":{"lat":47.8884604,"lon":-97.0924874,"brand":"Flying J Travel Center","city":"Grand Forks","st":"ND","addr":"4401 32nd Ave S"},"491":{"lat":38.4801317,"lon":-78.8184653,"brand":"Pilot Travel Center","city":"Harrisonburg","st":"VA","addr":"3634 N Valley Pike"},"492":{"lat":34.1871247,"lon":-93.0702632,"brand":"Pilot Travel Center","city":"Arkadelphia","st":"AR","addr":"170 Valley Street"},"493":{"lat":33.1940086,"lon":-80.6023074,"brand":"Flying J Travel Center","city":"Saint George","st":"SC","addr":"113 Motel Dr"},"494":{"lat":42.7812067,"lon":-74.0286795,"brand":"Pilot Travel Center","city":"Schenectady","st":"NY","addr":"1128 Duanesburg Road"},"495":{"lat":41.697872,"lon":-92.359042,"brand":"Pilot Travel Center","city":"Brooklyn","st":"IA","addr":"4126 IA-21"},"496":{"lat":41.6438844,"lon":-91.1487783,"brand":"ONE9 Travel Center","city":"Atalissa","st":"IA","addr":"2086 Atalissa Rd"},"497":{"lat":33.5930321,"lon":-86.1592193,"brand":"Pilot Travel Center","city":"Lincoln","st":"AL","addr":"130 Honda Dr"},"498":{"lat":34.3645731,"lon":-96.1406451,"brand":"Pilot Travel Center","city":"Atoka","st":"OK","addr":"1954 S Mississippi Ave"},"500":{"lat":30.5162908,"lon":-83.058748,"brand":"Pilot Travel Center","city":"Jasper","st":"FL","addr":"8067 FL-6"},"503":{"lat":39.538934,"lon":-79.9944461,"brand":"Pilot Travel Center","city":"Morgantown","st":"WV","addr":"2309 Smithtown Rd"},"504":{"lat":42.2567114,"lon":-121.7983394,"brand":"Pilot Travel Center","city":"Klamath Falls","st":"OR","addr":"3817 US-97"},"507":{"lat":30.811624,"lon":-97.6117736,"brand":"Pilot","city":"Jarrell","st":"TX","addr":"11710 N I-35"},"509":{"lat":38.2933768,"lon":-112.6537124,"brand":"Pilot","city":"Beaver","st":"UT","addr":"653 W 1400 N"},"510":{"lat":39.2560229,"lon":-112.1170877,"brand":"Pilot","city":"Scipio","st":"UT","addr":"810 N 800 W St"},"511":{"lat":46.86039734,"lon":-101.0101547,"brand":"Pilot","city":"Mandan","st":"ND","addr":"3825 Business Loop I-94"},"513":{"lat":35.6104756,"lon":-115.3918571,"brand":"Pilot","city":"Jean","st":"NV","addr":"115 West Primm Blvd."},"514":{"lat":40.1574859,"lon":-89.4126756,"brand":"Pilot","city":"Lincoln","st":"IL","addr":"2903 Woodlawn Rd"},"517":{"lat":40.405691,"lon":-77.0095932,"brand":"Pilot Travel Center","city":"Duncannon","st":"PA","addr":"30 Benvenue Rd"},"518":{"lat":40.4634014,"lon":-76.3396952,"brand":"Flying J Travel Center","city":"Myerstown","st":"PA","addr":"2210 Camp Swatara Rd"},"549":{"lat":36.4866,"lon":-80.74622,"brand":"Flying J Travel Center","city":"Mount Airy","st":"NC","addr":"125 Plaza Ln"},"550":{"lat":48.2243522,"lon":-101.3508245,"brand":"Flying J Travel Center","city":"Minot","st":"ND","addr":"3800 Highway 2 And 52 W"},"551":{"lat":32.3739292,"lon":-99.0068081,"brand":"Pilot","city":"Cisco","st":"TX","addr":"16851 I-20 Frontage Rd"},"552":{"lat":39.4114794,"lon":-84.1503563,"brand":"Flying J Travel Center","city":"Lebanon","st":"OH","addr":"3140 OH-350"},"553":{"lat":30.9055722,"lon":-102.8852688,"brand":"Flying J Travel Center","city":"Fort Stockton","st":"TX","addr":"2571 N Front St"},"554":{"lat":28.337268,"lon":-98.024215,"brand":"Flying J Travel Center","city":"George West","st":"TX","addr":"4066 US-59"},"557":{"lat":32.6974031,"lon":-103.1836776,"brand":"Pilot Travel Center","city":"Hobbs","st":"NM","addr":"3710 W Carlsbad Hwy"},"559":{"lat":32.2655182,"lon":-101.4745571,"brand":"Pilot Travel Center","city":"Big Spring","st":"TX","addr":"706 E I-20 Frontage Rd"},"568":{"lat":29.2794534,"lon":-98.6693412,"brand":"Pilot Travel Center","city":"Von Ormy","st":"TX","addr":"14555 I-35 S"},"571":{"lat":36.92207336,"lon":-89.31438446,"brand":"Flying J Travel Center","city":"Charleston","st":"MO","addr":"2460 US-60"},"572":{"lat":42.4703384,"lon":-93.5717792,"brand":"Flying J Travel Center","city":"Williams","st":"IA","addr":"3040 220th St"},"573":{"lat":30.1081044,"lon":-96.0473866,"brand":"Pilot Travel Center","city":"Hempstead","st":"TX","addr":"2000 FM 1488"},"576":{"lat":44.4706668,"lon":-93.294797,"brand":"Flying J Travel Center","city":"Northfield","st":"MN","addr":"8051 Bagley Ave"},"580":{"lat":31.8647723,"lon":-102.3019668,"brand":"Flying J Travel Center","city":"Odessa","st":"TX","addr":"5900 E I-20"},"581":{"lat":44.7809115,"lon":-93.0336023,"brand":"Pilot Travel Center","city":"Inver Grove Heights","st":"MN","addr":"11650 Courthouse Blvd"},"583":{"lat":48.8484467,"lon":-122.5731765,"brand":"Pilot Travel Center","city":"Ferndale","st":"WA","addr":"5670 Barrett Rd"},"584":{"lat":45.2339583,"lon":-122.8104507,"brand":"Flying J Travel Center","city":"Aurora","st":"OR","addr":"12334 Ehlen Road NE"},"586":{"lat":30.4384033,"lon":-88.5288094,"brand":"Pilot Travel Center","city":"Moss Point","st":"MS","addr":"6705 MS-63"},"590":{"lat":45.8609554,"lon":-95.4234375,"brand":"Pilot Travel Center","city":"Alexandria","st":"MN","addr":"3181 Evergreen Ln SW"},"592":{"lat":39.1124811,"lon":-108.647565,"brand":"Pilot Travel Center","city":"Grand Junction","st":"CO","addr":"2195 Hwy 6 and 50"},"593":{"lat":32.1255814,"lon":-110.8735462,"brand":"Pilot Travel Center","city":"Tucson","st":"AZ","addr":"5570 E Travel Plaza Way"},"594":{"lat":42.4354238,"lon":-96.3733046,"brand":"Pilot Travel Center","city":"Sioux City","st":"IA","addr":"2815 Singing Hills Blvd"},"595":{"lat":37.7403304,"lon":-88.9645464,"brand":"Pilot Travel Center","city":"Marion","st":"IL","addr":"2611 Vernell Rd"},"596":{"lat":42.976691,"lon":-82.542045,"brand":"Pilot Travel Center","city":"Smiths Creek","st":"MI","addr":"2424 Wadhams Rd"},"597":{"lat":39.3390026,"lon":-82.9520042,"brand":"Pilot Travel Center","city":"Chillicothe","st":"OH","addr":"1111 E Main St"},"599":{"lat":43.8856864,"lon":-100.7045032,"brand":"Pilot Travel Center","city":"Murdo","st":"SD","addr":"601 E 5th St"},"601":{"lat":33.3217277,"lon":-87.0471245,"brand":"Flying J Travel Center","city":"McCalla","st":"AL","addr":"6098 McAshan Dr"},"602":{"lat":33.5620912,"lon":-86.8307449,"brand":"Pilot Travel Center","city":"Birmingham","st":"AL","addr":"224 Daniel Payne Dr"},"603":{"lat":31.1912783,"lon":-85.400108,"brand":"Flying J Travel Center","city":"Dothan","st":"AL","addr":"2190 Ross Clark Cir"},"604":{"lat":32.1945542,"lon":-86.4203323,"brand":"Flying J Travel Center","city":"Hope Hull","st":"AL","addr":"900 Tyson Rd"},"605":{"lat":35.2837073,"lon":-93.0900862,"brand":"Flying J Travel Center","city":"Russellville","st":"AR","addr":"42 Bradley Cove Rd"},"606":{"lat":33.5131726,"lon":-93.9479159,"brand":"Flying J Travel Center","city":"Texarkana","st":"AR","addr":"8300 State Hwy 108"},"607":{"lat":35.1549119,"lon":-90.1421199,"brand":"Flying J Travel Center","city":"West Memphis","st":"AR","addr":"3400 Service Loop Rd"},"608":{"lat":33.6042,"lon":-114.5196999,"brand":"Flying J Travel Center","city":"Ehrenberg","st":"AZ","addr":"I-10 Exit 1 Frontage Road N."},"609":{"lat":32.7323837,"lon":-111.5496249,"brand":"Pilot Travel Center","city":"Eloy","st":"AZ","addr":"16189 S Sunshine Blvd"},"610":{"lat":35.2183918,"lon":-114.0073461,"brand":"Flying J Travel Center","city":"Kingman","st":"AZ","addr":"3300 E Andy Devine Ave"},"611":{"lat":33.4608847,"lon":-112.2053977,"brand":"Flying J Travel Center","city":"Phoenix","st":"AZ","addr":"6700 W Latham St"},"612":{"lat":35.0153794,"lon":-110.6741597,"brand":"Flying J Travel Center","city":"Winslow","st":"AZ","addr":"400 Transcon Ln"},"613":{"lat":35.5319889,"lon":-119.188576,"brand":"Pilot Travel Center","city":"Bakersfield","st":"CA","addr":"17047 Zachary Ave"},"614":{"lat":34.8545101,"lon":-117.0815228,"brand":"Flying J Travel Center","city":"Barstow","st":"CA","addr":"2611 Fisher Blvd"},"616":{"lat":34.8163944,"lon":-118.8880783,"brand":"Flying J Travel Center","city":"Lebec","st":"CA","addr":"42810 Frazier Mountain Park Rd"},"617":{"lat":38.117915,"lon":-121.3942058,"brand":"Flying J Travel Center","city":"Lodi","st":"CA","addr":"15100 Thorton Rd"},"618":{"lat":37.7558333,"lon":-121.1435841,"brand":"Flying J Travel Center","city":"Ripon","st":"CA","addr":"1501 N Jack Tone Rd"},"619":{"lat":39.7626954,"lon":-104.7937789,"brand":"Flying J Travel Center","city":"Aurora","st":"CO","addr":"16751 E 32nd Ave"},"620":{"lat":40.1705735,"lon":-79.7316886,"brand":"Flying J Travel Center","city":"Smithton","st":"PA","addr":"122 Fitz Henry Rd"},"621":{"lat":39.2754901,"lon":-103.7090322,"brand":"Flying J Travel Center","city":"Limon","st":"CO","addr":"2495 Williams Ave"},"622":{"lat":27.4490076,"lon":-80.3977832,"brand":"Flying J Travel Center","city":"Fort Pierce","st":"FL","addr":"100 N Kings Hwy"},"623":{"lat":30.4933576,"lon":-84.43096,"brand":"Flying J Travel Center","city":"Midway","st":"FL","addr":"32670 Blue Star Hwy"},"624":{"lat":28.3260372,"lon":-82.3225013,"brand":"Flying J Travel Center","city":"San Antonio","st":"FL","addr":"29933 State Rd 52"},"625":{"lat":28.0097683,"lon":-82.3031612,"brand":"Flying J Travel Center","city":"Seffner","st":"FL","addr":"11555 E Sligh Ave"},"626":{"lat":29.7495721,"lon":-81.3445823,"brand":"Flying J Travel Center","city":"Saint Augustine","st":"FL","addr":"950 FL-206 W"},"627":{"lat":31.1403516,"lon":-81.5784934,"brand":"Flying J Travel Center","city":"Brunswick","st":"GA","addr":"2990 US-17"},"628":{"lat":34.3474573,"lon":-83.3223003,"brand":"Flying J Travel Center","city":"Carnesville","st":"GA","addr":"10226 Old Federal Rd"},"630":{"lat":33.2071237,"lon":-84.0638174,"brand":"Flying J Travel Center","city":"Jackson","st":"GA","addr":"1125 Bucksnort Rd"},"631":{"lat":30.6412004,"lon":-83.1900194,"brand":"Flying J Travel Center","city":"Lake Park","st":"GA","addr":"7001 Bellville Rd"},"632":{"lat":34.5765025,"lon":-84.9472873,"brand":"Flying J Travel Center","city":"Resaca","st":"GA","addr":"288 Resaca Beach Blvd NW"},"633":{"lat":33.5473246,"lon":-83.0773774,"brand":"Flying J Travel Center","city":"Greensboro","st":"GA","addr":"3600 GA-77"},"634":{"lat":33.7194795,"lon":-85.0253519,"brand":"Flying J Travel Center","city":"Temple","st":"GA","addr":"650 Carrollton St"},"636":{"lat":41.603348,"lon":-90.6251171,"brand":"Flying J Travel Center","city":"Davenport","st":"IA","addr":"8200 Northwest Blvd"},"637":{"lat":42.459915,"lon":-92.252874,"brand":"Flying J Travel Center","city":"Evansdale","st":"IA","addr":"445 Evansdale Dr"},"638":{"lat":43.6616509,"lon":-116.6546368,"brand":"Flying J Travel Center","city":"Caldwell","st":"ID","addr":"3512 Franklin Rd"},"639":{"lat":47.7116767,"lon":-116.9968084,"brand":"Flying J Travel Center","city":"Post Falls","st":"ID","addr":"3636 W 5th Ave"},"640":{"lat":42.6495296,"lon":-114.4429066,"brand":"Flying J Travel Center","city":"Jerome","st":"ID","addr":"5350 US-93"},"641":{"lat":42.6604208,"lon":-112.2068603,"brand":"Flying J Travel Center","city":"McCammon","st":"ID","addr":"587 E US-30"},"642":{"lat":38.5758906,"lon":-90.0983352,"brand":"Flying J Travel Center","city":"East Saint Louis","st":"IL","addr":"140 Racehorse Dr"},"643":{"lat":39.1335485,"lon":-88.5658933,"brand":"Flying J Travel Center","city":"Effingham","st":"IL","addr":"1701 W Evergreen Ave"},"644":{"lat":41.3694973,"lon":-89.098512,"brand":"Flying J Travel Center","city":"La Salle","st":"IL","addr":"343 Civic Rd"},"645":{"lat":38.7599408,"lon":-90.0654007,"brand":"Flying J Travel Center","city":"Granite City","st":"IL","addr":"1310 East Chain Of Rocks Road"},"646":{"lat":42.4934727,"lon":-88.9991648,"brand":"Flying J Travel Center","city":"South Beloit","st":"IL","addr":"16049 Willowbrook Rd"},"647":{"lat":38.1754647,"lon":-87.5528733,"brand":"Flying J Travel Center","city":"Haubstadt","st":"IN","addr":"844 E 1250 S"},"649":{"lat":39.6933166,"lon":-86.191068,"brand":"Flying J Travel Center","city":"Indianapolis","st":"IN","addr":"1720 W Thompson Rd"},"650":{"lat":41.58644104,"lon":-87.23820496,"brand":"Flying J Travel Center","city":"Lake Station","st":"IN","addr":"1401 Ripley St"},"652":{"lat":40.0342799,"lon":-86.4740837,"brand":"Flying J Travel Center","city":"Lebanon","st":"IN","addr":"520 S State Rd 39"},"653":{"lat":41.2883734,"lon":-87.2944676,"brand":"Flying J Travel Center","city":"Hebron","st":"IN","addr":"3231 E 181st Ave"},"655":{"lat":39.85187,"lon":-85.4129703,"brand":"Flying J Travel Center","city":"Spiceland","st":"IN","addr":"5300 IN-3"},"656":{"lat":39.5524096,"lon":-86.044397,"brand":"Flying J Travel Center","city":"Whiteland","st":"IN","addr":"82 White St"},"657":{"lat":37.752972,"lon":-99.9799674,"brand":"Pilot","city":"Dodge City","st":"KS","addr":"2524 E Wyatt Earp Blvd"},"658":{"lat":38.41147232,"lon":-96.23771667,"brand":"Flying J Travel Center","city":"Emporia","st":"KS","addr":"4215 W US-50"},"659":{"lat":38.8786245,"lon":-97.5928074,"brand":"Flying J Travel Center","city":"Salina","st":"KS","addr":"2250 N Ohio St"},"660":{"lat":38.3649517,"lon":-82.6962556,"brand":"Flying J Travel Center","city":"Catlettsburg","st":"KY","addr":"15236 KY-180"},"661":{"lat":36.6625455,"lon":-86.5536362,"brand":"Flying J Travel Center","city":"Franklin","st":"KY","addr":"4380 Nashville Rd"},"662":{"lat":36.6972138,"lon":-87.4554238,"brand":"Flying J Travel Center","city":"Oak Grove","st":"KY","addr":"18750 Herndon Oak Grove Rd"},"663":{"lat":38.15671158,"lon":-85.06716919,"brand":"Flying J Travel Center","city":"Waddy","st":"KY","addr":"1670 Waddy Rd"},"664":{"lat":38.8578474,"lon":-84.6259142,"brand":"Flying J Travel Center","city":"Walton","st":"KY","addr":"13019 Walton Verona Rd"},"665":{"lat":32.4441848,"lon":-93.9796915,"brand":"Flying J Travel Center","city":"Greenwood","st":"LA","addr":"9510 Greenwood Rd"},"666":{"lat":42.090093,"lon":-86.4122835,"brand":"Pilot Travel Center","city":"Benton Harbor","st":"MI","addr":"1860 E Napier Ave"},"667":{"lat":42.78749847,"lon":-84.67834473,"brand":"Flying J Travel Center","city":"Grand Ledge","st":"MI","addr":"7800 W Grand River Ave"},"668":{"lat":43.4513774,"lon":-83.8943419,"brand":"Flying J Travel Center","city":"Saginaw","st":"MI","addr":"3475 E Washington Rd"},"669":{"lat":37.05543137,"lon":-94.42993927,"brand":"Flying J Travel Center","city":"Joplin","st":"MO","addr":"11570 Hwy FF"},"671":{"lat":36.7599624,"lon":-89.5408255,"brand":"Flying J Travel Center","city":"Matthews","st":"MO","addr":"703 MO-80"},"672":{"lat":38.72330856,"lon":-94.45155334,"brand":"Flying J Travel Center","city":"Peculiar","st":"MO","addr":"700 State Hwy J"},"673":{"lat":38.2252757,"lon":-91.1581712,"brand":"Flying J Travel Center","city":"Sullivan","st":"MO","addr":"825 N Loop Dr"},"674":{"lat":38.84034348,"lon":-91.22811127,"brand":"Flying J Travel Center","city":"Warrenton","st":"MO","addr":"1 Campbranch Rd"},"675":{"lat":40.395805,"lon":-91.569996,"brand":"Flying J Travel Center","city":"Wayland","st":"MO","addr":"102 Fore Dr"},"676":{"lat":30.4216398,"lon":-89.1389281,"brand":"Flying J Travel Center","city":"Gulfport","st":"MS","addr":"9351 Canal Rd"},"677":{"lat":34.9287804,"lon":-89.7939963,"brand":"Flying J Travel Center","city":"Olive Branch","st":"MS","addr":"4740 Bethel Rd"},"678":{"lat":32.2762632,"lon":-90.1613218,"brand":"Flying J Travel Center","city":"Pearl","st":"MS","addr":"685 US-80"},"682":{"lat":36.0715902,"lon":-79.3529186,"brand":"Flying J Travel Center","city":"Haw River","st":"NC","addr":"1043 Jimmie Kerr Rd"},"683":{"lat":35.5747028,"lon":-78.1459412,"brand":"Flying J Travel Center","city":"Kenly","st":"NC","addr":"1800 Princeton Kenly Rd"},"684":{"lat":46.92931366,"lon":-104.0090332,"brand":"Flying J Travel Center","city":"Beach","st":"ND","addr":"I-94 ND-16"},"685":{"lat":46.833604,"lon":-96.844738,"brand":"Flying J Travel Center","city":"Fargo","st":"ND","addr":"3150 39th St SW"},"686":{"lat":41.0925612,"lon":-96.2556211,"brand":"Flying J Travel Center","city":"Gretna","st":"NE","addr":"15010 NE-31"},"687":{"lat":41.1013907,"lon":-100.726902,"brand":"Flying J Travel Center","city":"North Platte","st":"NE","addr":"3400 S Newberry Rd"},"688":{"lat":39.6840558,"lon":-75.4851526,"brand":"Flying J Travel Center","city":"Carneys Point","st":"NJ","addr":"326 Slapes Corner Rd"},"689":{"lat":35.0790408,"lon":-106.7456022,"brand":"Flying J Travel Center","city":"Albuquerque","st":"NM","addr":"9911 Avalon Rd NW"},"690":{"lat":32.34115601,"lon":-108.6767273,"brand":"Flying J Travel Center","city":"Lordsburg","st":"NM","addr":"11 Old Hwy 70"},"691":{"lat":35.1590964,"lon":-103.7036002,"brand":"Flying J Travel Center","city":"Tucumcari","st":"NM","addr":"2021 S Mountain Rd"},"692":{"lat":41.097733,"lon":-114.9578051,"brand":"Flying J Travel Center","city":"Wells","st":"NV","addr":"156 US-93"},"693":{"lat":43.0013959,"lon":-78.4066346,"brand":"Flying J Travel Center","city":"Corfu","st":"NY","addr":"8484 Alleghany Rd"},"694":{"lat":41.789318,"lon":-80.8562008,"brand":"Flying J Travel Center","city":"Austinburg","st":"OH","addr":"2349 Center Rd"},"695":{"lat":40.8323439,"lon":-83.9672948,"brand":"Flying J Travel Center","city":"Beaverdam","st":"OH","addr":"420 E Main St"},"696":{"lat":40.2677136,"lon":-82.9246924,"brand":"Flying J Travel Center","city":"Sunbury","st":"OH","addr":"7735 E OH-37"},"697":{"lat":41.1836545,"lon":-80.5720484,"brand":"Flying J Travel Center","city":"Hubbard","st":"OH","addr":"2226 N Main St"},"698":{"lat":39.6459564,"lon":-83.5386672,"brand":"Flying J Travel Center","city":"Washington Court House","st":"OH","addr":"9935 SR 41"},"699":{"lat":39.9424225,"lon":-82.5992153,"brand":"Flying J Travel Center","city":"Millersport","st":"OH","addr":"10480 Baltimore Rd SW"},"700":{"lat":41.5352451,"lon":-83.460871,"brand":"Flying J Travel Center","city":"Perrysburg","st":"OH","addr":"26415 Warns Dr"},"701":{"lat":34.2007766,"lon":-97.1673255,"brand":"Pilot Travel Center","city":"Ardmore","st":"OK","addr":"2450 Cooper Dr"},"702":{"lat":35.4757212,"lon":-95.5384283,"brand":"Flying J Travel Center","city":"Checotah","st":"OK","addr":"1255 W Gentry Ave"},"703":{"lat":35.4588196,"lon":-97.6902966,"brand":"Flying J Travel Center","city":"Oklahoma City","st":"OK","addr":"701 S Morgan Rd"},"704":{"lat":35.5960696,"lon":-97.4366066,"brand":"Flying J Travel Center","city":"Edmond","st":"OK","addr":"4801 NE 122nd St"},"705":{"lat":35.2647134,"lon":-99.6417911,"brand":"Flying J Travel Center","city":"Sayre","st":"OK","addr":"2400 S 4th St"},"706":{"lat":36.16302,"lon":-95.8317575,"brand":"Flying J Travel Center","city":"Tulsa","st":"OK","addr":"121 N 129th E Ave"},"707":{"lat":41.172932,"lon":-79.0963003,"brand":"Flying J Travel Center","city":"Brookville","st":"PA","addr":"246 Allegheny Blvd"},"708":{"lat":40.2346905,"lon":-77.1235278,"brand":"Flying J Travel Center","city":"Carlisle","st":"PA","addr":"1501 Harrisburg Pike"},"709":{"lat":41.0284403,"lon":-77.5224174,"brand":"Flying J Travel Center","city":"Mill Hall","st":"PA","addr":"5609 Nittany Valley Dr"},"710":{"lat":41.8242884,"lon":-75.6823762,"brand":"Flying J Travel Center","city":"New Milford","st":"PA","addr":"1623 Oliver Rd"},"711":{"lat":35.142823,"lon":-81.509215,"brand":"Flying J Travel Center","city":"Blacksburg","st":"SC","addr":"1011 N Mountain St"},"712":{"lat":34.0651378,"lon":-81.0235786,"brand":"Flying J Travel Center","city":"Columbia","st":"SC","addr":"5901 Fairfield Rd"},"713":{"lat":34.3385304,"lon":-79.5340594,"brand":"ONE9 Travel Center","city":"Latta","st":"SC","addr":"111 Mill Branch Rd"},"714":{"lat":34.8558894,"lon":-81.0063579,"brand":"Flying J Travel Center","city":"Rock Hill","st":"SC","addr":"2435 Mt Holly Rd"},"715":{"lat":38.8182674,"lon":-90.9542847,"brand":"Mr. Fuel Travel Center","city":"Foristell","st":"MO","addr":"11 State Hwy W"},"716":{"lat":43.6030357,"lon":-96.7675861,"brand":"Flying J Travel Center","city":"Sioux Falls","st":"SD","addr":"5201 N Granite Ln"},"717":{"lat":38.4761043,"lon":-90.8507787,"brand":"Mr. Fuel Travel Center","city":"Villa Ridge","st":"MO","addr":"3324 MO-100"},"718":{"lat":38.2848473,"lon":-90.4057716,"brand":"Mr. Fuel Travel Center","city":"Pevely","st":"MO","addr":"8915 Weier Rd"},"719":{"lat":41.5654596,"lon":-87.4029508,"brand":"Mr. Fuel Travel Center","city":"Gary","st":"IN","addr":"2945 Burr St"},"720":{"lat":36.0263959,"lon":-87.1716696,"brand":"Flying J Travel Center","city":"Fairview","st":"TN","addr":"1420 TN-96 N"},"721":{"lat":39.6974074,"lon":-86.1882078,"brand":"Mr. Fuel Travel Center","city":"Indianapolis","st":"IN","addr":"4610 S Harding St"},"722":{"lat":35.8812168,"lon":-84.2360297,"brand":"Pilot Travel Center","city":"Knoxville","st":"TN","addr":"800 Watt Rd"},"723":{"lat":35.193724,"lon":-101.7234877,"brand":"Flying J Travel Center","city":"Amarillo","st":"TX","addr":"9601 E I-40"},"725":{"lat":29.7955083,"lon":-95.032652,"brand":"Flying J Travel Center","city":"Baytown","st":"TX","addr":"1876 East Fwy"},"726":{"lat":32.6564009,"lon":-96.7511766,"brand":"Pilot Travel Center","city":"Dallas","st":"TX","addr":"7425 Bonnie View Rd"},"727":{"lat":26.3364056,"lon":-98.1435611,"brand":"Flying J Travel Center","city":"Edinburg","st":"TX","addr":"1305 E Monte Cristo Rd"},"728":{"lat":31.6620252,"lon":-106.2381572,"brand":"Flying J Travel Center","city":"El Paso","st":"TX","addr":"1301 Horizon Blvd"},"729":{"lat":29.9992162,"lon":-95.4276477,"brand":"Flying J Travel Center","city":"Houston","st":"TX","addr":"15919 North Fwy"},"730":{"lat":27.6856257,"lon":-99.4647714,"brand":"Flying J Travel Center","city":"Laredo","st":"TX","addr":"1011 Beltway Pkwy"},"731":{"lat":39.8508353,"lon":-85.4172436,"brand":"Mr. Fuel Travel Center","city":"Spiceland","st":"IN","addr":"140 Holwager Dr"},"732":{"lat":41.1394393,"lon":-80.7178035,"brand":"Mr. Fuel Travel Center","city":"Girard","st":"OH","addr":"2840 Salt Springs Rd"},"733":{"lat":33.5932659,"lon":-101.8414191,"brand":"Flying J Travel Center","city":"Lubbock","st":"TX","addr":"602 4th St"},"734":{"lat":30.192606,"lon":-95.1927976,"brand":"Flying J Travel Center","city":"New Caney","st":"TX","addr":"23412 TX-242"},"735":{"lat":30.1163479,"lon":-93.8201752,"brand":"Flying J Travel Center","city":"Orange","st":"TX","addr":"7112 I-10 W"},"736":{"lat":31.4006912,"lon":-103.4860849,"brand":"Flying J Travel Center","city":"Pecos","st":"TX","addr":"100 E Pinehurst St"},"737":{"lat":29.4465626,"lon":-98.3629924,"brand":"Flying J Travel Center","city":"San Antonio","st":"TX","addr":"1815 N Foster Rd"},"738":{"lat":32.4608346,"lon":-99.8726693,"brand":"Flying J Travel Center","city":"Abilene","st":"TX","addr":"I-20 Exit 277 101 N Fm 707"},"739":{"lat":31.5074992,"lon":-97.1450977,"brand":"Pilot Travel Center","city":"Waco","st":"TX","addr":"2409 S New Rd"},"740":{"lat":29.780082,"lon":-95.9522831,"brand":"Flying J Travel Center","city":"Brookshire","st":"TX","addr":"204 Waller Ave"},"741":{"lat":33.8904025,"lon":-98.4828232,"brand":"Flying J Travel Center","city":"Wichita Falls","st":"TX","addr":"2311 Old Jacksboro Hwy"},"742":{"lat":40.6857934,"lon":-112.2670893,"brand":"Flying J Travel Center","city":"Tooele","st":"UT","addr":"1605 East Saddleback Blvd."},"743":{"lat":39.6852119,"lon":-111.8364574,"brand":"Flying J Travel Center","city":"Nephi","st":"UT","addr":"1597 S Main St"},"744":{"lat":41.231031,"lon":-112.0084148,"brand":"Flying J Travel Center","city":"Ogden","st":"UT","addr":"1172 West 21St Street"},"746":{"lat":40.72686,"lon":-111.91531,"brand":"Flying J Travel Center","city":"Salt Lake City","st":"UT","addr":"2025 S 900 W"},"747":{"lat":40.1874931,"lon":-111.6409511,"brand":"Pilot Travel Center","city":"Springville","st":"UT","addr":"1460 N 1750 W"},"748":{"lat":41.4234165,"lon":-112.0515726,"brand":"Flying J Travel Center","city":"Willard","st":"UT","addr":"600 W 750 N"},"749":{"lat":37.9329403,"lon":-77.4729654,"brand":"Flying J Travel Center","city":"Ruther Glen","st":"VA","addr":"24279 Rogers Clark Blvd"},"750":{"lat":36.9452625,"lon":-80.9456769,"brand":"Flying J Travel Center","city":"Max Meadows","st":"VA","addr":"139 Factory Outlet Dr"},"752":{"lat":39.2906067,"lon":-78.0865531,"brand":"Flying J Travel Center","city":"Clear Brook","st":"VA","addr":"1530 Rest Church Rd"},"753":{"lat":37.9392929,"lon":-77.465738,"brand":"Mr. Fuel Travel Center","city":"Ruther Glen","st":"VA","addr":"23818 Rogers Clark Blvd"},"754":{"lat":36.9359544,"lon":-80.9928701,"brand":"Flying J Travel Center","city":"Wytheville","st":"VA","addr":"3249 Chapman Rd"},"756":{"lat":44.2955836,"lon":-90.8302187,"brand":"Flying J Travel Center","city":"Black River Falls","st":"WI","addr":"780 WI-54"},"758":{"lat":42.8518377,"lon":-106.2700967,"brand":"Flying J Travel Center","city":"Casper","st":"WY","addr":"41 SE Wyoming Blvd"},"759":{"lat":41.0987062,"lon":-104.8533895,"brand":"Flying J Travel Center","city":"Cheyenne","st":"WY","addr":"2250 Etchepare Dr"},"760":{"lat":42.0865223,"lon":-110.9478694,"brand":"Flying J Travel Center","city":"Cokeville","st":"WY","addr":"10501 US-30"},"761":{"lat":41.2654068,"lon":-110.978722,"brand":"Flying J Travel Center","city":"Evanston","st":"WY","addr":"1920 Harrison Dr"},"762":{"lat":44.2772273,"lon":-105.4953387,"brand":"Flying J Travel Center","city":"Gillette","st":"WY","addr":"1810 S Douglas Hwy"},"763":{"lat":41.77835464,"lon":-107.3090591,"brand":"Flying J Travel Center","city":"Rawlins","st":"WY","addr":"I-80 Johnson Rd"},"764":{"lat":41.6083717,"lon":-109.2307447,"brand":"Flying J Travel Center","city":"Rock Springs","st":"WY","addr":"650 Stagecoach Blvd"},"765":{"lat":33.8179749,"lon":-116.4032511,"brand":"Flying J Travel Center","city":"Thousand Palms","st":"CA","addr":"72235 Varner Rd"},"768":{"lat":39.1307082,"lon":-94.4968376,"brand":"Flying J Travel Center","city":"Kansas City","st":"MO","addr":"1300 N Corrington Ave"},"770":{"lat":40.9602597,"lon":-117.7481952,"brand":"Flying J Travel Center","city":"Winnemucca","st":"NV","addr":"1880 W Winnemucca Blvd"},"772":{"lat":40.8361616,"lon":-111.9341089,"brand":"Flying J Travel Center","city":"North Salt Lake","st":"UT","addr":"885 North Pointe Cir"},"773":{"lat":38.7888044,"lon":-112.0815436,"brand":"Flying J Travel Center","city":"Richfield","st":"UT","addr":"35 E Flying J Dr"},"774":{"lat":41.9635559,"lon":-112.7094863,"brand":"Flying J Travel Center","city":"Snowville","st":"UT","addr":"90 S Stone Rd"},"775":{"lat":37.05994,"lon":-113.5818177,"brand":"Pilot Travel Center","city":"Saint George","st":"UT","addr":"2841 S 60 E"},"777":{"lat":43.5714807,"lon":-116.1890947,"brand":"Pilot","city":"Boise","st":"ID","addr":"3353 Federal Way"},"784":{"lat":39.6254394,"lon":-75.9501516,"brand":"Flying J Travel Center","city":"North East","st":"MD","addr":"1 Center Dr"},"874":{"lat":25.7604594,"lon":-80.4802748,"brand":"Pilot","city":"Miami","st":"FL","addr":"17696 SW 8th St"},"875":{"lat":39.6379176,"lon":-75.8058185,"brand":"Flying J Travel Center","city":"Elkton","st":"MD","addr":"221 Belle Hill Rd"},"876":{"lat":37.9396373,"lon":-77.4691216,"brand":"Flying J Travel Center","city":"Ruther Glen","st":"VA","addr":"23866 Rogers Clark Blvd"},"879":{"lat":38.6174525,"lon":-121.537714,"brand":"Pilot","city":"Sacramento","st":"CA","addr":"2828 El Centro Rd"},"883":{"lat":32.5429196,"lon":-95.755173,"brand":"Pilot","city":"Canton","st":"TX","addr":"9800 I-20 Frontage Rd"},"887":{"lat":32.7052513,"lon":-100.8655866,"brand":"Pilot","city":"Snyder","st":"TX","addr":"1100 US-180"},"888":{"lat":34.5288784,"lon":-101.7976719,"brand":"Pilot","city":"Tulia","st":"TX","addr":"2901 TX-86"},"889":{"lat":38.3117904,"lon":-88.9570961,"brand":"Pilot","city":"Mount Vernon","st":"IL","addr":"101 S 45th St"},"890":{"lat":37.07189178,"lon":-88.12336731,"brand":"Pilot","city":"Kuttawa","st":"KY","addr":"2299 US-62"},"891":{"lat":40.8922926,"lon":-74.6859668,"brand":"Pilot","city":"Ledgewood","st":"NJ","addr":"1470 Route 46 East"},"892":{"lat":38.9955555,"lon":-110.1484791,"brand":"Pilot","city":"Green River","st":"UT","addr":"1085 E Main St"},"893":{"lat":41.5000596,"lon":-95.3342091,"brand":"Pilot","city":"Avoca","st":"IA","addr":"7005 N Chestnut St"},"894":{"lat":28.7098151,"lon":-100.4636967,"brand":"Pilot","city":"Eagle Pass","st":"TX","addr":"3002 US-57"},"895":{"lat":42.1378169,"lon":-83.2385141,"brand":"Flying J Travel Center","city":"Woodhaven","st":"MI","addr":"21055 West Rd"},"897":{"lat":25.9255267,"lon":-80.2451434,"brand":"Pilot","city":"Opa Locka","st":"FL","addr":"16650 NW 27th Ave"},"898":{"lat":36.704684,"lon":-77.5531649,"brand":"Pilot","city":"Emporia","st":"VA","addr":"918 W Atlantic St"},"899":{"lat":36.7110035,"lon":-78.10871,"brand":"Pilot","city":"South Hill","st":"VA","addr":"1011 E Atlantic St"},"900":{"lat":35.3341091,"lon":-78.5624185,"brand":"Pilot","city":"Dunn","st":"NC","addr":"65 Sadler Rd"},"901":{"lat":40.6924742,"lon":-99.381206,"brand":"ONE9 Travel Center","city":"Elm Creek","st":"NE","addr":"5085 Buffalo Creek Rd"},"902":{"lat":40.8304087,"lon":-98.3800944,"brand":"Pilot","city":"Grand Island","st":"NE","addr":"3335 W Wood River Rd"},"903":{"lat":38.8749438,"lon":-97.6097274,"brand":"Pilot Travel Center","city":"Salina","st":"KS","addr":"1944 N 9th St"},"904":{"lat":41.0517214,"lon":-102.0703037,"brand":"Flying J Travel Center","city":"Big Springs","st":"NE","addr":"109 Circle Rd"},"905":{"lat":46.8755535,"lon":-113.8872596,"brand":"Pilot","city":"Milltown","st":"MT","addr":"7985 MT-200"},"906":{"lat":45.6449084,"lon":-109.2473871,"brand":"Pilot","city":"Columbus","st":"MT","addr":"602 E 8th Ave"},"907":{"lat":46.3968925,"lon":-105.8217566,"brand":"Pilot","city":"Miles City","st":"MT","addr":"1210 S Haynes Ave"},"908":{"lat":46.0050832,"lon":-112.6117468,"brand":"Pilot","city":"Butte","st":"MT","addr":"1000 Grizzly Trail"},"909":{"lat":48.5131882,"lon":-111.8725399,"brand":"Pilot","city":"Shelby","st":"MT","addr":"1350 W Roosevelt Hwy"},"910":{"lat":45.9169377,"lon":-111.6001759,"brand":"Pilot","city":"Three Forks","st":"MT","addr":"10800 US-287"},"911":{"lat":47.18933868,"lon":-114.8854218,"brand":"Pilot","city":"Superior","st":"MT","addr":"27 Diamond Road"},"912":{"lat":40.7602577,"lon":-98.5864607,"brand":"Pilot Travel Center","city":"Wood River","st":"NE","addr":"11775 NE-11"},"913":{"lat":41.6590285,"lon":-93.5010561,"brand":"Flying J Travel Center","city":"Altoona","st":"IA","addr":"3231 Adventureland Dr"},"914":{"lat":46.9552047,"lon":-114.1323574,"brand":"Pilot","city":"Missoula","st":"MT","addr":"8745 Hwy 93 N"},"915":{"lat":45.8159303,"lon":-108.4164867,"brand":"Pilot","city":"Billings","st":"MT","addr":"2711 N Frontage Rd"},"916":{"lat":46.7569861,"lon":-114.0816338,"brand":"Pilot","city":"Lolo","st":"MT","addr":"11882 US-93"},"917":{"lat":47.4704043,"lon":-111.3618546,"brand":"Pilot","city":"Great Falls","st":"MT","addr":"3700 31st St SW"},"918":{"lat":44.1127503,"lon":-103.2730747,"brand":"Pilot Travel Center","city":"Rapid City","st":"SD","addr":"2783 Deadwood Ave"},"920":{"lat":39.3642035,"lon":-101.0325012,"brand":"Pilot Travel Center","city":"Colby","st":"KS","addr":"1110 E Willow Ave"},"922":{"lat":48.3697799,"lon":-114.2392121,"brand":"Pilot","city":"Columbia Falls","st":"MT","addr":"6102 US-2"},"923":{"lat":45.8124502,"lon":-108.415756,"brand":"Pilot","city":"Billings","st":"MT","addr":"2775 Old Hardin Rd"},"924":{"lat":46.008564,"lon":-112.609993,"brand":"Pilot","city":"Butte","st":"MT","addr":"122000 Browns Gulch Rd"},"931":{"lat":44.1034566,"lon":-103.1496074,"brand":"Pilot","city":"Rapid City","st":"SD","addr":"4200 N I-90 Service Rd"},"934":{"lat":45.2920513,"lon":-118.0338308,"brand":"Flying J Travel Center","city":"La Grande","st":"OR","addr":"63276 OR-203"},"963":{"lat":47.6206104,"lon":-117.5069616,"brand":"Pilot","city":"Spokane","st":"WA","addr":"3709 S Geiger Blvd"},"965":{"lat":46.9707317,"lon":-120.5368689,"brand":"Pilot","city":"Ellensburg","st":"WA","addr":"2300 S Canyon Rd"},"966":{"lat":40.6496025,"lon":-116.9449053,"brand":"Pilot","city":"Battle Mountain","st":"NV","addr":"650 W Front St"},"967":{"lat":47.6636009,"lon":-117.3159575,"brand":"Pilot","city":"Spokane","st":"WA","addr":"6606 E Broadway Ave"},"1001":{"lat":31.1904977,"lon":-101.4497547,"brand":"Pilot Travel Center","city":"Big Lake","st":"TX","addr":"1310 US-67"},"1003":{"lat":34.4351215,"lon":-100.2309026,"brand":"Pilot Travel Center","city":"Childress","st":"TX","addr":"2301 Avenue F NW"},"1004":{"lat":36.6961831,"lon":-97.3492505,"brand":"Pilot Travel Center","city":"Tonkawa","st":"OK","addr":"16600 W South Ave"},"1005":{"lat":39.614639,"lon":-119.216686,"brand":"Flying J Travel Center","city":"Fernley","st":"NV","addr":"480 Truck Inn Way"},"1006":{"lat":30.50567,"lon":-99.77641,"brand":"Pilot Travel Center","city":"Junction","st":"TX","addr":"2342 N Main St"},"1009":{"lat":34.0150753,"lon":-117.5250598,"brand":"Flying J Travel Center","city":"Mira Loma","st":"CA","addr":"11053 Riverside Dr"},"1012":{"lat":40.9828218,"lon":-91.53993,"brand":"Pilot Travel Center","city":"Mount Pleasant","st":"IA","addr":"1300 N Grand Ave"},"1013":{"lat":45.7744806,"lon":-111.1995545,"brand":"Pilot","city":"Belgrade","st":"MT","addr":"561 Business Hub Dr"},"1014":{"lat":47.11682892,"lon":-104.7361221,"brand":"Pilot","city":"Glendive","st":"MT","addr":"73 MT-16"},"1015":{"lat":47.6850474,"lon":-104.1769532,"brand":"Pilot","city":"Sidney","st":"MT","addr":"3150 S Central Ave"},"1017":{"lat":37.8561505,"lon":-121.2764225,"brand":"Flying J Travel Center","city":"Lathrop","st":"CA","addr":"345 Roth Rd"},"1019":{"lat":39.7504319,"lon":-122.2080594,"brand":"Pilot Travel Center","city":"Orland","st":"CA","addr":"4444 Commerce Ln"},"1020":{"lat":41.5883044,"lon":-87.2394809,"brand":"Mr. Fuel Travel Center","city":"Lake Station","st":"IN","addr":"1235 Ripley St"},"1021":{"lat":42.7407969,"lon":-86.0704831,"brand":"Pilot Travel Center","city":"Holland","st":"MI","addr":"853 Interchange Dr"},"1023":{"lat":31.3178073,"lon":-94.6985369,"brand":"Pilot Travel Center","city":"Lufkin","st":"TX","addr":"1920 E Denman Ave"},"1024":{"lat":41.4800317,"lon":-88.0795798,"brand":"Pilot Travel Center","city":"Joliet","st":"IL","addr":"40 E Laraway Rd"},"1025":{"lat":29.7712688,"lon":-95.1252231,"brand":"Flying J Travel Center","city":"Channelview","st":"TX","addr":"102 Sheldon Rd"},"1027":{"lat":35.23537445,"lon":-102.4285965,"brand":"Pilot Travel Center","city":"Vega","st":"TX","addr":"6555 US-385"},"1028":{"lat":31.4484808,"lon":-96.0790069,"brand":"Pilot Travel Center","city":"Buffalo","st":"TX","addr":"2605 W Commerce St"},"1030":{"lat":41.6633529,"lon":-87.7009418,"brand":"Pilot Travel Center","city":"Alsip","st":"IL","addr":"12680 S Kedzie Ave"},"1032":{"lat":40.3530713,"lon":-80.6172111,"brand":"Mr. Fuel Travel Center","city":"Steubenville","st":"OH","addr":"435 S 3rd St"},"1033":{"lat":31.9804824,"lon":-102.0335856,"brand":"Flying J Travel Center","city":"Midland","st":"TX","addr":"3302 Garden City Hwy"},"1041":{"lat":41.90330124,"lon":-88.12294006,"brand":"Pilot Travel Center","city":"Carol Stream","st":"IL","addr":"170 W North Ave"},"1042":{"lat":41.7545299,"lon":-87.7991951,"brand":"Pilot Travel Center","city":"Bridgeview","st":"IL","addr":"7501 S Harlem Ave"},"1043":{"lat":43.439351,"lon":-112.1156694,"brand":"Flying J Travel Center","city":"Idaho Falls","st":"ID","addr":"6485 W Overland Dr"},"1046":{"lat":26.6668053,"lon":-80.7164824,"brand":"Pilot Travel Center","city":"South Bay","st":"FL","addr":"210 US-27"},"1047":{"lat":30.3716433,"lon":-81.7644103,"brand":"Pilot Travel Center","city":"Jacksonville","st":"FL","addr":"4075 Jones Branch Rd"},"1049":{"lat":36.7139838,"lon":-76.6699445,"brand":"Pilot","city":"Suffolk","st":"VA","addr":"2400 Holland Rd"},"1051":{"lat":30.2536932,"lon":-93.0147467,"brand":"Pilot Travel Center","city":"Iowa","st":"LA","addr":"1119 Lowe-Grout Rd"},"1054":{"lat":30.0545276,"lon":-97.6899568,"brand":"Pilot Travel Center","city":"Buda","st":"TX","addr":"10700 U.S. Hwy 183 N."},"1056":{"lat":41.6333804,"lon":-84.7658688,"brand":"Flying J Travel Center","city":"Edon","st":"OH","addr":"14896 OH-49"},"1057":{"lat":29.7143723,"lon":-95.1963337,"brand":"Flying J Travel Center","city":"Pasadena","st":"TX","addr":"1305 Pasadena Fwy"},"1058":{"lat":29.8142997,"lon":-82.1685194,"brand":"Pilot","city":"Waldo","st":"FL","addr":"17276 NE US Hwy 301"},"1059":{"lat":29.6951385,"lon":-96.9017549,"brand":"Pilot Travel Center","city":"Schulenburg","st":"TX","addr":"709 N US-77"},"1061":{"lat":37.2136396,"lon":-93.3823566,"brand":"Flying J Travel Center","city":"Springfield","st":"MO","addr":"4939 W Chestnut Expy"},"1063":{"lat":35.6427105,"lon":-82.0395217,"brand":"Pilot Travel Center","city":"Marion","st":"NC","addr":"3365 Sugar Hill Rd"},"1068":{"lat":33.080571,"lon":-80.2108677,"brand":"Flying J Travel Center","city":"Summerville","st":"SC","addr":"799 Jedburg Rd"},"1070":{"lat":34.9465243,"lon":-104.6518134,"brand":"Pilot Travel Center","city":"Santa Rosa","st":"NM","addr":"2464 U.S. Route 66"},"1071":{"lat":36.181583,"lon":-119.3319768,"brand":"Flying J Travel Center","city":"Tulare","st":"CA","addr":"979 E Paige Ave"},"1080":{"lat":37.4656111,"lon":-121.1649537,"brand":"Flying J Travel Center","city":"Patterson","st":"CA","addr":"2275 Sperry Ave"},"1082":{"lat":32.903569,"lon":-79.9845578,"brand":"Pilot Travel Center","city":"Charleston","st":"SC","addr":"5714 N Rhett Ave"},"1083":{"lat":36.3324255,"lon":-102.0732117,"brand":"Pilot Travel Center","city":"Stratford","st":"TX","addr":"100 S Poplar St"},"1086":{"lat":40.5540231,"lon":-85.5544149,"brand":"Flying J Travel Center","city":"Marion","st":"IN","addr":"6255 IN-18"},"1092":{"lat":41.8913838,"lon":-91.6671873,"brand":"Pilot Travel Center","city":"Cedar Rapids","st":"IA","addr":"8950 Earhart Ln SW"},"1094":{"lat":35.1271716,"lon":-118.4154888,"brand":"Pilot Travel Center","city":"Tehachapi","st":"CA","addr":"1668 E Tehachapi Blvd"},"1096":{"lat":28.3748043,"lon":-80.802004,"brand":"Flying J Travel Center","city":"Cocoa","st":"FL","addr":"1101 Friday Rd"},"1098":{"lat":40.719338,"lon":-74.12474,"brand":"Pilot","city":"Newark","st":"NJ","addr":"400 Doremus Ave"},"1103":{"lat":48.1870046,"lon":-122.1965918,"brand":"Pilot Travel Center","city":"Arlington","st":"WA","addr":"2430 WA-530"},"1105":{"lat":30.78164482,"lon":-92.18698883,"brand":"Pilot Travel Center","city":"Bunkie","st":"LA","addr":"7349 LA-29"},"1106":{"lat":34.959462,"lon":-106.659844,"brand":"Pilot Travel Center","city":"Albuquerque","st":"NM","addr":"9220 Broadway Blvd SE"},"1108":{"lat":32.8018963,"lon":-97.0303964,"brand":"Mr. Fuel Travel Center","city":"Grand Prairie","st":"TX","addr":"3206 W Trinity Blvd"},"1110":{"lat":39.0558276,"lon":-104.8531235,"brand":"Pilot Travel Center","city":"Colorado Springs","st":"CO","addr":"15455 Terrazzo Drive"},"1114":{"lat":41.9879545,"lon":-87.9603302,"brand":"Pilot Travel Center","city":"Bensenville","st":"IL","addr":"1050 Busse Rd"},"1117":{"lat":41.0483937,"lon":-86.2177461,"brand":"Pilot Travel Center","city":"Rochester","st":"IN","addr":"389 Rochester Crossing Dr"},"1118":{"lat":34.396157,"lon":-103.153025,"brand":"Pilot Travel Center","city":"Clovis","st":"NM","addr":"4100 Mabry Dr"},"1126":{"lat":39.1563223,"lon":-94.4763951,"brand":"Pilot Travel Center","city":"Kansas City","st":"MO","addr":"8801 NE Birmingham Rd"},"1128":{"lat":27.9174094,"lon":-81.7189421,"brand":"Pilot Travel Center","city":"Bartow","st":"FL","addr":"7990 SR-60"},"1132":{"lat":32.97791,"lon":-115.503928,"brand":"Pilot Travel Center","city":"Brawley","st":"CA","addr":"234 Ben Hulse Hwy"},"1134":{"lat":31.8258008,"lon":-103.9086407,"brand":"Pilot Travel Center","city":"Orla","st":"TX","addr":"3752 US-285 N"},"1135":{"lat":27.2114937,"lon":-98.141729,"brand":"Pilot Travel Center","city":"Falfurrias","st":"TX","addr":"1419 US-281"},"1140":{"lat":33.1004149,"lon":-97.4703761,"brand":"Pilot Travel Center","city":"Rhome","st":"TX","addr":"8221 US-287"},"1143":{"lat":31.8764138,"lon":-102.4222521,"brand":"Pilot Travel Center","city":"Odessa","st":"TX","addr":"4200 TX-302"},"1145":{"lat":31.9675664,"lon":-102.2523331,"brand":"Pilot Travel Center","city":"Midland","st":"TX","addr":"11501 TX-191 E"},"1146":{"lat":31.4013776,"lon":-103.520421,"brand":"Pilot Travel Center","city":"Pecos","st":"TX","addr":"2500 S Bickley Ave"},"1147":{"lat":31.8435749,"lon":-103.1038993,"brand":"Pilot Travel Center","city":"Kermit","st":"TX","addr":"127 TX-302"},"1149":{"lat":30.41295,"lon":-81.5717923,"brand":"Mr. Fuel Travel Center","city":"Jacksonville","st":"FL","addr":"3515 Zoo Pkwy"},"1161":{"lat":31.7847366,"lon":-102.477157,"brand":"Pilot Travel Center","city":"Odessa","st":"TX","addr":"3145 Meteor Crater Rd"},"1163":{"lat":41.1754712,"lon":-79.7395275,"brand":"Pilot","city":"Emlenton","st":"PA","addr":"6406 Emlenton Clintonville Rd"},"1165":{"lat":32.1207132,"lon":-103.1887077,"brand":"Pilot Travel Center","city":"Jal","st":"NM","addr":"410 E Kansas Ave"},"1169":{"lat":46.9515503,"lon":-122.9404961,"brand":"Flying J Travel Center","city":"Olympia","st":"WA","addr":"2725 93rd Ave SW"},"1171":{"lat":36.7830337,"lon":-114.1404743,"brand":"Pilot","city":"Mesquite","st":"NV","addr":"1057 S. Lower Flat Top Drive"},"1173":{"lat":47.242027,"lon":-122.4120431,"brand":"Pilot","city":"Tacoma","st":"WA","addr":"1440 Puyallup Ave"},"1174":{"lat":39.418978,"lon":-87.6946522,"brand":"Pilot Travel Center","city":"Marshall","st":"IL","addr":"104 W Trefz Dr"},"1175":{"lat":34.3272678,"lon":-112.1173363,"brand":"Pilot Travel Center","city":"Mayer","st":"AZ","addr":"14905 Cordes Lake Road"},"1177":{"lat":34.0646148,"lon":-117.4930253,"brand":"Flying J Travel Center","city":"Fontana","st":"CA","addr":"14320 Slover Ave"},"1178":{"lat":32.0843516,"lon":-110.8036737,"brand":"Pilot","city":"Tucson","st":"AZ","addr":"9255 S Rita Rd"},"1179":{"lat":31.3387149,"lon":-110.9669164,"brand":"Pilot","city":"Nogales","st":"AZ","addr":"330 N Mariposa Rd"},"1180":{"lat":33.4941113,"lon":-112.9374837,"brand":"Pilot Travel Center","city":"Tonopah","st":"AZ","addr":"41112 W Indian School Rd"},"1181":{"lat":41.93364334,"lon":-89.03578186,"brand":"Pilot Travel Center","city":"Rochelle","st":"IL","addr":"1201 E IL-38"},"1185":{"lat":36.8971773,"lon":-113.9105181,"brand":"Pilot","city":"Littlefield","st":"AZ","addr":"4031 Fleet St"},"1192":{"lat":33.765266,"lon":-112.5139629,"brand":"Pilot","city":"Wittmann","st":"AZ","addr":"31120 US-60"},"1193":{"lat":34.6994655,"lon":-113.6102127,"brand":"Pilot","city":"Wikieup","st":"AZ","addr":"18183 US-93"},"1194":{"lat":33.4144829,"lon":-111.9963571,"brand":"Pilot","city":"Phoenix","st":"AZ","addr":"3444 S 40th St"},"1195":{"lat":47.0053718,"lon":-120.5865244,"brand":"Pilot Travel Center","city":"Ellensburg","st":"WA","addr":"1307 N Dolarway Rd"},"1203":{"lat":32.3436755,"lon":-88.7989809,"brand":"Mr. Fuel Travel Center","city":"Meridian","st":"MS","addr":"10580 Old Hwy 80 W"},"1205":{"lat":31.615049836,"lon":-102.81119209,"brand":"Pilot Travel Center","city":"Monahans","st":"TX","addr":"4840 E I-20"},"1206":{"lat":31.8531568,"lon":-103.0683492,"brand":"Flying J Travel Center","city":"Kermit","st":"TX","addr":"700 TX-302"},"1207":{"lat":31.5874934,"lon":-102.9174045,"brand":"Pilot Travel Center","city":"Monahans","st":"TX","addr":"101 S Loop 464 Rd"},"1208":{"lat":32.685002,"lon":-114.5809437,"brand":"Pilot Travel Center","city":"Yuma","st":"AZ","addr":"3075 Gila Ridge Rd"},"1209":{"lat":31.9685165,"lon":-102.0731046,"brand":"Pilot Travel Center","city":"Midland","st":"TX","addr":"2810 Rankin Hwy"},"1211":{"lat":32.3071262,"lon":-102.5422173,"brand":"Pilot Travel Center","city":"Andrews","st":"TX","addr":"1103 S Main St"},"1212":{"lat":33.6335131,"lon":-113.7684425,"brand":"Pilot Travel Center","city":"Salome","st":"AZ","addr":"48286 Vicksburg Rd"},"1213":{"lat":34.8639841,"lon":-114.1439702,"brand":"Pride Travel Center","city":"Yucca","st":"AZ","addr":"12551 S Mohave Center Blvd"},"1215":{"lat":33.6281109,"lon":-113.769208,"brand":"One9 Travel Center","city":"Salome","st":"AZ","addr":"48710 Vicksburg Rd"},"1216":{"lat":32.8117472,"lon":-111.6721938,"brand":"Pride Travel Center","city":"Eloy","st":"AZ","addr":"5240 S Sunland Gin Rd"},"1219":{"lat":38.9708539,"lon":-89.1360665,"brand":"Pilot Travel Center","city":"Vandalia","st":"IL","addr":"10 Interstate Dr"},"1222":{"lat":46.8896463,"lon":-96.8355128,"brand":"Stamart Travel Center","city":"Fargo","st":"ND","addr":"3500 12th Ave N"},"1224":{"lat":46.8294333,"lon":-100.7292862,"brand":"ONE9 Travel Center","city":"Bismarck","st":"ND","addr":"3936 Miriam Ave"},"1225":{"lat":38.5554689,"lon":-89.8059702,"brand":"Pilot Travel Center","city":"Mascoutah","st":"IL","addr":"9810 Perrin Rd"},"1226":{"lat":45.669673,"lon":-120.8319857,"brand":"EZ Trip Travel Center","city":"Wasco","st":"OR","addr":"91558 Biggs Rufus Highway"},"1227":{"lat":31.52783775,"lon":-103.1197739,"brand":"Pilot Travel Center","city":"Pyote","st":"TX","addr":"164 FM 1927"},"1232":{"lat":44.5552429,"lon":-123.058034,"brand":"EZ Trip Travel Center","city":"Albany","st":"OR","addr":"33380 OR-34"},"1234":{"lat":35.7001766,"lon":-114.476603,"brand":"Pilot","city":"Willow Beach","st":"AZ","addr":"12683 White Hills Rd"},"1235":{"lat":32.6978828,"lon":-113.9532945,"brand":"Pilot","city":"Tacna","st":"AZ","addr":"9250 S Avenue 40 E"},"1243":{"lat":32.9295595,"lon":-112.6732196,"brand":"Pilot Travel Center","city":"Gila Bend","st":"AZ","addr":"3006 S Butterfield Trl"},"1244":{"lat":32.9501103,"lon":-112.7059016,"brand":"Pilot","city":"Gila Bend","st":"AZ","addr":"942 E Pima St"},"1245":{"lat":39.176874,"lon":-89.6743846,"brand":"Mr. Fuel Travel Center","city":"Litchfield","st":"IL","addr":"4 Corvette Dr"},"1247":{"lat":33.46931458,"lon":-94.45362854,"brand":"Pilot","city":"New Boston","st":"TX","addr":"1888 US-82"},"1248":{"lat":32.5913325,"lon":-96.6804812,"brand":"Pilot","city":"Wilmer","st":"TX","addr":"103 S I-45"},"1251":{"lat":41.6742115,"lon":-107.9788783,"brand":"ONE9 Travel Center","city":"Wamsutter","st":"WY","addr":"399 McCormick St"},"1258":{"lat":33.6702159,"lon":-114.1983686,"brand":"Arco Travel Center","city":"Quartzsite","st":"AZ","addr":"185 N Riggles Ave"},"1260":{"lat":35.2683512,"lon":-119.2295358,"brand":"Pilot","city":"Bakersfield","st":"CA","addr":"20404 Taft Hwy"},"1262":{"lat":31.5981162,"lon":-106.197152,"brand":"Xpress Fuel Travel Center","city":"Clint","st":"TX","addr":"1590 FM1110"},"1264":{"lat":32.7800886,"lon":-111.6186084,"brand":"Xpress Fuel Travel Center","city":"Eloy","st":"AZ","addr":"3105 N Toltec Rd"},"1267":{"lat":34.5436496,"lon":-118.0362129,"brand":"Pilot Travel Center","city":"Palmdale","st":"CA","addr":"5231 Pearblossom Hwy"},"1269":{"lat":32.270694707,"lon":-109.244065379,"brand":"Pilot","city":"San Simon","st":"AZ","addr":"2500 I-10 BL"},"1270":{"lat":34.9748028,"lon":-110.0903778,"brand":"Pilot","city":"Holbrook","st":"AZ","addr":"1851 State Hwy 77"},"1271":{"lat":33.2790681,"lon":-115.9652693,"brand":"Pilot","city":"Thermal","st":"CA","addr":"2084 S Marina Dr"},"1272":{"lat":34.9040813,"lon":-116.8872153,"brand":"Pilot","city":"Yermo","st":"CA","addr":"35858 Ghost Town Rd"},"1275":{"lat":36.9247229,"lon":-120.0265363,"brand":"EZ Trip Travel Center","city":"Madera","st":"CA","addr":"28577 Ave 12"},"1277":{"lat":36.0752496,"lon":-120.1037106,"brand":"EZ Trip Travel Center","city":"Huron","st":"CA","addr":"44779 S. Lassen Avenue"},"1281":{"lat":36.9953,"lon":-111.565,"brand":"Pilot","city":"Page","st":"AZ","addr":"101 W Glen Dr"},"1282":{"lat":32.7190493,"lon":-96.3220795,"brand":"Pilot","city":"Terrell","st":"TX","addr":"1100 FM 148"},"1283":{"lat":32.0724371,"lon":-96.4467603,"brand":"Pilot","city":"Corsicana","st":"TX","addr":"4750 I-45 S"},"1284":{"lat":33.4530104,"lon":-94.1325955,"brand":"Pilot","city":"Nash","st":"TX","addr":"1955 N Kings Hwy"},"1285":{"lat":32.6154694,"lon":-98.1085154,"brand":"Pilot","city":"Santo","st":"TX","addr":"87125 I-20"},"1286":{"lat":38.6255314,"lon":-88.9682202,"brand":"Pilot","city":"Salem","st":"IL","addr":"1530 W Main St"},"1287":{"lat":32.50446,"lon":-95.64242,"brand":"Pilot","city":"Van","st":"TX","addr":"133 FM 314"},"1288":{"lat":37.3764191,"lon":-86.8270456,"brand":"Pilot","city":"Beaver Dam","st":"KY","addr":"675 Western Kentucky Pkwy"},"1289":{"lat":33.7936955,"lon":-96.5547368,"brand":"Pilot","city":"Denison","st":"TX","addr":"4300 TX-91"},"1290":{"lat":32.5166213,"lon":-96.8212845,"brand":"Pilot","city":"Red Oak","st":"TX","addr":"200 S I-35 Service Rd"},"1291":{"lat":33.5754519,"lon":-97.8968024,"brand":"Pilot","city":"Bowie","st":"TX","addr":"2606 FM 174"},"1292":{"lat":30.2145066,"lon":-97.1384899,"brand":"Pilot","city":"Paige","st":"TX","addr":"2537 TX-21"},"1293":{"lat":32.85485,"lon":-96.5611576,"brand":"Pilot","city":"Garland","st":"TX","addr":"801 E I-30"},"1295":{"lat":32.4073961,"lon":-95.2057909,"brand":"Pilot","city":"Tyler","st":"TX","addr":"16243 US-271"},"1297":{"lat":32.1975812,"lon":-96.8999525,"brand":"Pilot","city":"Italy","st":"TX","addr":"101 L R Campbell Rd"},"1299":{"lat":33.8005866,"lon":-98.1954501,"brand":"Pilot","city":"Henrietta","st":"TX","addr":"101 US-287"},"1300":{"lat":32.3016505,"lon":-96.6381538,"brand":"Pilot","city":"Ennis","st":"TX","addr":"2200 W Lake Bardwell Dr"},"1302":{"lat":35.3545204,"lon":-119.3313863,"brand":"EZ Trip Travel Center","city":"Bakersfield","st":"CA","addr":"29541 Stockdale Hwy"},"1303":{"lat":31.7438634,"lon":-95.6552762,"brand":"Pilot","city":"Palestine","st":"TX","addr":"2320 W Oak St"},"1304":{"lat":32.8418309,"lon":-97.3422565,"brand":"Pilot","city":"Fort Worth","st":"TX","addr":"1000 NE Loop 820"},"1312":{"lat":31.958225,"lon":-106.586038,"brand":"Xpress Fuel Travel Center","city":"Vinton","st":"TX","addr":"581 Vinton Rd"},"1315":{"lat":40.0069789,"lon":-74.9747132,"brand":"Pilot","city":"Cinnaminson","st":"NJ","addr":"2601 US-130"},"1317":{"lat":42.946194,"lon":-74.356256,"brand":"Pilot Travel Center","city":"Fultonville","st":"NY","addr":"164 Riverside Dr"},"1318":{"lat":37.2734671,"lon":-93.1113704,"brand":"Pilot","city":"Strafford","st":"MO","addr":"325 E Evergreen St"},"1319":{"lat":32.4637066,"lon":-97.2646991,"brand":"Pilot","city":"Alvarado","st":"TX","addr":"3313 S Burleson Blvd"},"1320":{"lat":32.4284404,"lon":-96.8747349,"brand":"Pilot","city":"Waxahachie","st":"TX","addr":"625 Ovilla Rd"},"1323":{"lat":39.6008361,"lon":-94.7911572,"brand":"Pilot Travel Center","city":"Faucett","st":"MO","addr":"1307 SE Grand DD Hwy"},"1326":{"lat":34.0623524,"lon":-117.2886219,"brand":"Pilot Travel Center","city":"Colton","st":"CA","addr":"2300 E Steel Rd"},"1327":{"lat":42.1651464,"lon":-72.5451751,"brand":"Pilot Travel Center","city":"Chicopee","st":"MA","addr":"357 Burnett Rd"},"1328":{"lat":34.1378748,"lon":-117.4277745,"brand":"Pilot Travel Center","city":"Rialto","st":"CA","addr":"2325 Sierra Lakes Pkwy"},"1330":{"lat":34.9125381,"lon":-91.1962519,"brand":"ONE9 Travel Center","city":"Brinkley","st":"AR","addr":"2101 US-49"},"1334":{"lat":33.4368267,"lon":-97.164043,"brand":"Pilot","city":"Valley View","st":"TX","addr":"13965 I-35 S"},"1335":{"lat":32.43665,"lon":-97.10582,"brand":"Pilot","city":"Venus","st":"TX","addr":"110 U.S. 67"},"1336":{"lat":30.9360239,"lon":-90.5225333,"brand":"Pilot","city":"Kentwood","st":"LA","addr":"802 Ave G"},"1338":{"lat":30.838487,"lon":-97.5994259,"brand":"Pilot","city":"Jarrell","st":"TX","addr":"13745 N I-35"},"1339":{"lat":43.4585679,"lon":-76.1156866,"brand":"Pilot","city":"Parish","st":"NY","addr":"2023 NY-104"},"1341":{"lat":48.1884204,"lon":-122.2058885,"brand":"Pilot","city":"Arlington","st":"WA","addr":"1801 Pioneer Hwy E"},"1343":{"lat":41.7376105,"lon":-122.6237428,"brand":"Pilot","city":"Yreka","st":"CA","addr":"787 Montague Rd"},"1344":{"lat":32.6927832,"lon":-97.518294,"brand":"Pilot","city":"Fort Worth","st":"TX","addr":"1301 Markum Ranch Rd E"},"1346":{"lat":38.0442959,"lon":-97.3202665,"brand":"Pilot","city":"Newton","st":"KS","addr":"200 Manchester Ave"},"1347":{"lat":30.3796558,"lon":-89.7378872,"brand":"Pilot","city":"Pearl River","st":"LA","addr":"65583 Pump Slough Rd"},"1349":{"lat":31.0393392,"lon":-104.8164774,"brand":"Xpress Fuel Travel Center","city":"Van Horn","st":"TX","addr":"900 Frontage Rd"},"1354":{"lat":31.779989,"lon":-102.3686554,"brand":"Pilot Travel Center","city":"Odessa","st":"TX","addr":"6001 US-385"},"1358":{"lat":35.506251,"lon":-108.825976,"brand":"ONE9 Travel Center","city":"Gallup","st":"NM","addr":"3303 W Historic Hwy 66"},"1359":{"lat":39.5589462,"lon":-119.4898485,"brand":"ONE9 Travel Center","city":"Sparks","st":"NV","addr":"400 USA Parkway (Hwy 439)"},"1360":{"lat":36.7658917,"lon":-88.6420211,"brand":"Pilot","city":"Mayfield","st":"KY","addr":"297 Treeland Dr"},"1361":{"lat":38.1138171,"lon":-121.3952552,"brand":"Pilot","city":"Lodi","st":"CA","addr":"14749 Thornton Rd"},"1362":{"lat":35.0430762,"lon":-110.6992564,"brand":"Pilot","city":"Winslow","st":"AZ","addr":"2201 N Park Dr"},"1365":{"lat":32.744751,"lon":-85.2791182,"brand":"Pilot","city":"Cusseta","st":"AL","addr":"5495 Co Rd 388"},"1366":{"lat":35.8427453,"lon":-88.0854867,"brand":"ONE9 Travel Center","city":"Holladay","st":"TN","addr":"15060 US-641 S"},"1370":{"lat":27.620175,"lon":-99.524462,"brand":"Pilot Travel Center","city":"Laredo","st":"TX","addr":"14070 Mines Rd"},"1372":{"lat":34.9137,"lon":-114.15526,"brand":"Flying J Travel Center","city":"Yucca","st":"AZ","addr":"10835 S Double R Dr"},"1379":{"lat":33.1340386,"lon":-96.0544805,"brand":"Pilot","city":"Greenville","st":"TX","addr":"3004 I-30"},"1380":{"lat":26.1602683,"lon":-97.8769161,"brand":"Pilot","city":"Mercedes","st":"TX","addr":"8001 E Expressway 83"},"1381":{"lat":30.86284,"lon":-96.58241,"brand":"Pilot","city":"Hearne","st":"TX","addr":"1656 S Market St"},"1382":{"lat":40.1043072,"lon":-104.6025179,"brand":"Pilot Travel Center","city":"Hudson","st":"CO","addr":"7044 County Rd 49"},"1383":{"lat":35.805238,"lon":-90.6256004,"brand":"Pilot","city":"Jonesboro","st":"AR","addr":"5750 Commerce Sq"},"1384":{"lat":33.5702187,"lon":-116.0905171,"brand":"Pilot","city":"Mecca","st":"CA","addr":"90480 66th Ave"},"1385":{"lat":34.054941,"lon":-117.395232,"brand":"Pilot","city":"Bloomington","st":"CA","addr":"10951 Cedar Ave"},"1390":{"lat":32.18191,"lon":-81.45691,"brand":"Pilot Travel Center","city":"Ellabell","st":"GA","addr":"130 Interstate Exchange Way"},"1393":{"lat":29.6737724,"lon":-95.0287098,"brand":"Pilot","city":"La Porte","st":"TX","addr":"904 W Barbours Cut Blvd"},"1395":{"lat":35.779795,"lon":-115.3246831,"brand":"Pilot","city":"Jean","st":"NV","addr":"22535 S Las Vegas Blvd"},"1396":{"lat":41.1839527,"lon":-79.2459552,"brand":"Pilot","city":"Strattanville","st":"PA","addr":"21251 US-322"},"1399":{"lat":33.508486,"lon":-112.386399,"brand":"Pilot","city":"Litchfield Park","st":"AZ","addr":"15112 West Camelback Road"},"1401":{"lat":29.9954874,"lon":-82.5985304,"brand":"Pilot","city":"Lake City","st":"FL","addr":"14170 US-441"},"1402":{"lat":30.7168935,"lon":-85.1861254,"brand":"Pilot","city":"Marianna","st":"FL","addr":"2091 FL-71"},"1403":{"lat":30.4458829,"lon":-82.9338536,"brand":"Pilot","city":"Jasper","st":"FL","addr":"6723 US-129"},"1411":{"lat":32.3190674,"lon":-109.4524745,"brand":"Pilot","city":"Bowie","st":"AZ","addr":"1275 E Business Loop"},"1412":{"lat":42.4873,"lon":-87.9499,"brand":"Pilot","city":"Zion","st":"IL","addr":"16452 W Russell Rd"},"1413":{"lat":37.0862571,"lon":-80.6502716,"brand":"Pilot","city":"Dublin","st":"VA","addr":"5150 State Park Rd"},"1414":{"lat":37.2328106,"lon":-80.2404936,"brand":"Pilot","city":"Elliston","st":"VA","addr":"5151 N Fork Rd"},"1415":{"lat":28.7536829,"lon":-82.0989929,"brand":"Pilot","city":"Lake Panasoffkee","st":"FL","addr":"293 County Rd 470"},"1416":{"lat":32.6723887,"lon":-96.968205,"brand":"Pilot","city":"Dallas","st":"TX","addr":"4880 Mountain Creek Pkwy"},"1417":{"lat":31.3951335,"lon":-97.2069101,"brand":"Pilot","city":"Lorena","st":"TX","addr":"12016 I-35"},"1418":{"lat":29.5390524,"lon":-98.0728941,"brand":"Pilot","city":"Seguin","st":"TX","addr":"1120 FM 775"},"1419":{"lat":29.2202891,"lon":-98.7953475,"brand":"Pilot","city":"Lytle","st":"TX","addr":"20204 I-35"},"1422":{"lat":35.0035558,"lon":-106.0291185,"brand":"Pilot","city":"Moriarty","st":"NM","addr":"820 Central Ave"},"1424":{"lat":37.544199,"lon":-121.2704852,"brand":"Pilot","city":"Westley","st":"CA","addr":"7051 McCracken Rd"},"1426":{"lat":43.5986071,"lon":-116.5723131,"brand":"Pilot","city":"Nampa","st":"ID","addr":"612 Northside Blvd"},"1428":{"lat":43.6699588,"lon":-116.6997722,"brand":"Pilot","city":"Caldwell","st":"ID","addr":"122 W Simplot Blvd"},"1429":{"lat":43.9741265,"lon":-116.9132849,"brand":"Pilot","city":"Fruitland","st":"ID","addr":"2001 Hwy 30 W"},"1432":{"lat":39.9556139,"lon":-104.7687582,"brand":"Pilot","city":"Brighton","st":"CO","addr":"2129 Barr Pl"},"1433":{"lat":33.288782,"lon":-111.996537,"brand":"Pilot","city":"Phoenix","st":"AZ","addr":"17405 S 40th St"},"1434":{"lat":34.0630486,"lon":-117.4911346,"brand":"Pilot","city":"Fontana","st":"CA","addr":"14416 Slover Ave"},"1436":{"lat":32.4715685,"lon":-85.6903832,"brand":"Pilot Travel Center","city":"Tuskegee","st":"AL","addr":"3680 AL-81"},"1439":{"lat":30.45405,"lon":-91.2454046,"brand":"Pilot Travel Center","city":"Port Allen","st":"LA","addr":"420 N Lobdell Hwy"},"1440":{"lat":35.3218488,"lon":-91.5624701,"brand":"Pilot","city":"Bald Knob","st":"AR","addr":"115 US-167"},"1441":{"lat":35.012233,"lon":-117.8827868,"brand":"Pilot","city":"North Edwards","st":"CA","addr":"12971 Northgate Blvd"},"1446":{"lat":30.71636,"lon":-85.94339,"brand":"Pilot Travel Center","city":"Ponce de Leon","st":"FL","addr":"2923 Hwy 81"},"1447":{"lat":32.7721387,"lon":-115.5545196,"brand":"Pilot","city":"El Centro","st":"CA","addr":"550 Wake Ave"},"1450":{"lat":28.66912,"lon":-100.45558,"brand":"Pilot Travel Center","city":"Eagle Pass","st":"TX","addr":"4392 El Indio Hwy"},"1452":{"lat":33.992899,"lon":-87.77867,"brand":"Pilot Travel Center","city":"Winfield","st":"AL","addr":"159 Michael Spann Dr"},"1458":{"lat":33.8400409,"lon":-117.2558415,"brand":"Pilot","city":"Perris","st":"CA","addr":"23261 Cajalco Expressway"},"1459":{"lat":43.1831462,"lon":-89.3225888,"brand":"Pilot","city":"DeForest","st":"WI","addr":"6162 US-51"},"1460":{"lat":39.70195,"lon":-91.03809,"brand":"Pilot","city":"Barry","st":"IL","addr":"1 Cieten Plaza"},"1461":{"lat":43.572311,"lon":-87.7992899,"brand":"Pilot","city":"Cedar Grove","st":"WI","addr":"905 Sauk Trail Rd"},"1462":{"lat":30.118541,"lon":-93.795381,"brand":"Pilot","city":"Orange","st":"TX","addr":"5000 I-10 W"},"1463":{"lat":30.2446587,"lon":-92.9278267,"brand":"Pilot","city":"Welsh","st":"LA","addr":"18889 S Frontage Rd"},"1467":{"lat":41.4881343,"lon":-87.5793327,"brand":"Pilot","city":"Chicago Heights","st":"IL","addr":"1445 E Sauk Trail"},"1470":{"lat":32.1476071,"lon":-94.3258121,"brand":"Pilot","city":"Carthage","st":"TX","addr":"2360 US-59"},"1471":{"lat":41.6824438,"lon":-88.0665971,"brand":"Pilot","city":"Bolingbrook","st":"IL","addr":"510 S Bolingbrook Dr"},"1473":{"lat":32.4174713,"lon":-99.5269975,"brand":"Pilot","city":"Clyde","st":"TX","addr":"8075 S Access Rd W"},"1476":{"lat":42.2353046,"lon":-88.818726,"brand":"Pilot","city":"Belvidere","st":"IL","addr":"1890 Crystal Pkwy"},"1477":{"lat":36.664053,"lon":-114.560722,"brand":"Pilot","city":"Moapa","st":"NV","addr":"900 Lewis Ranch Road"},"1478":{"lat":44.30747,"lon":-88.25087,"brand":"Pilot","city":"Kaukauna","st":"WI","addr":"3011 Lawe St"},"1479":{"lat":38.9941138,"lon":-112.3249574,"brand":"Pilot","city":"Fillmore","st":"UT","addr":"1155 N Cedar Mountain Rd"},"1480":{"lat":37.8564533,"lon":-112.8800196,"brand":"Pilot","city":"Parowan","st":"UT","addr":"30 W 800 North"},"1481":{"lat":31.4249224,"lon":-85.6182622,"brand":"Pilot","city":"Ozark","st":"AL","addr":"3934 US-231"},"1482":{"lat":45.7172862,"lon":-94.9551507,"brand":"Pilot","city":"Sauk Centre","st":"MN","addr":"1420 Main St S"},"1483":{"lat":41.1198595,"lon":-87.833758,"brand":"Pilot","city":"Kankakee","st":"IL","addr":"2209 E Court St"},"1488":{"lat":36.21829,"lon":-115.13164,"brand":"Pilot","city":"North Las Vegas","st":"NV","addr":"720 E Cheyenne Ave"},"1489":{"lat":32.26598,"lon":-107.77443,"brand":"Pilot","city":"Deming","st":"NM","addr":"1310 W Spruce St"},"1490":{"lat":35.38836,"lon":-89.41084,"brand":"Pilot Travel Center","city":"Mason","st":"TN","addr":"7530 TN-222"},"1492":{"lat":36.30903,"lon":-114.9513,"brand":"Pilot","city":"Nellis AFB","st":"NV","addr":"10150 Clark R. Petersen Blvd"},"1494":{"lat":41.99003,"lon":-88.03042,"brand":"Pilot","city":"Itasca","st":"IL","addr":"1221 N Rohlwing Rd"},"1495":{"lat":41.62588,"lon":-87.73809,"brand":"Pilot","city":"Midlothian","st":"IL","addr":"14640 S Cicero Ave"},"1501":{"lat":40.95166,"lon":-117.75938,"brand":"Pilot","city":"Winnemucca","st":"NV","addr":"3555 W Winnemucca Blvd"},"1503":{"lat":38.9300183,"lon":-111.8541675,"brand":"Pilot","city":"Salina","st":"UT","addr":"2055 S State St"},"1504":{"lat":35.46095,"lon":-114.9183,"brand":"Pilot","city":"Searchlight","st":"NV","addr":"670 U.S. 95"},"1505":{"lat":40.25759,"lon":-89.22553,"brand":"Pilot","city":"Atlanta","st":"IL","addr":"102 Empire St"},"1524":{"lat":33.6569516,"lon":-84.3705516,"brand":"Pilot","city":"Atlanta","st":"GA","addr":"3559 Jonesboro Road SE"},"1549":{"lat":33.593892,"lon":-86.1215833,"brand":"Pilot Travel Center","city":"Lincoln","st":"AL","addr":"75750 AL-77"},"1550":{"lat":34.1166897,"lon":-86.8635152,"brand":"Pilot Travel Center","city":"Cullman","st":"AL","addr":"1600 County Road 437"},"1577":{"lat":36.3767575,"lon":-84.2486992,"brand":"Pilot Travel Center","city":"Pioneer","st":"TN","addr":"106 Comfort Ln"},"4555":{"lat":33.1788644,"lon":-87.4465792,"brand":"ONE9 Travel Center","city":"Cottondale","st":"AL","addr":"3201 Buttermilk Rd"},"4556":{"lat":28.8736323,"lon":-82.090586,"brand":"Pilot Travel Center","city":"Wildwood","st":"FL","addr":"744 FL-44"},"4557":{"lat":34.3897672,"lon":-83.226739,"brand":"Pilot Travel Center","city":"Carnesville","st":"GA","addr":"11156 GA-106"},"4558":{"lat":34.5588042,"lon":-84.9356175,"brand":"Pilot Travel Center","city":"Calhoun","st":"GA","addr":"2111 US-41"},"4559":{"lat":33.72054,"lon":-84.9043776,"brand":"Pilot Travel Center","city":"Villa Rica","st":"GA","addr":"95 Liberty Rd"},"4560":{"lat":33.2106685,"lon":-84.0565108,"brand":"Pilot Travel Center","city":"Jackson","st":"GA","addr":"2995 GA-36"},"4561":{"lat":30.7552636,"lon":-83.2726705,"brand":"Pilot Travel Center","city":"Valdosta","st":"GA","addr":"3460 Madison Hwy"},"4562":{"lat":30.7598756,"lon":-81.6557746,"brand":"Pilot Travel Center","city":"Kingsland","st":"GA","addr":"2607 Scrubby Bluff Rd"},"4563":{"lat":40.3524999,"lon":-76.7270235,"brand":"Flying J Travel Center","city":"Harrisburg","st":"PA","addr":"7833 Linglestown Rd"},"4566":{"lat":35.1662827,"lon":-81.4509015,"brand":"Pilot Travel Center","city":"Blacksburg","st":"SC","addr":"2768 E Cherokee St"},"4567":{"lat":34.9126493,"lon":-80.9793572,"brand":"ONE9 Travel Center","city":"Rock Hill","st":"SC","addr":"1155 S Anderson Rd"},"4568":{"lat":33.6040319,"lon":-81.8417964,"brand":"Pilot Travel Center","city":"Graniteville","st":"SC","addr":"574 Bettis Academy Rd"},"4569":{"lat":32.2687875,"lon":-81.0806398,"brand":"Pilot Travel Center","city":"Hardeeville","st":"SC","addr":"15976 Whyte Hardee Blvd"},"4576":{"lat":33.2696837,"lon":-80.5671071,"brand":"Pilot Travel Center","city":"Saint George","st":"SC","addr":"9587 Charleston Hwy"},"4578":{"lat":34.5080118,"lon":-81.0011361,"brand":"Pilot Travel Center","city":"Winnsboro","st":"SC","addr":"10959 SC-200"},"4579":{"lat":33.6329459,"lon":-80.87946,"brand":"Pilot Travel Center","city":"Saint Matthews","st":"SC","addr":"1300 Burke Rd"},"4580":{"lat":34.2402895,"lon":-81.4590634,"brand":"Pilot Travel Center","city":"Prosperity","st":"SC","addr":"2221 SC-773"},